[
  {
    "code": "001",
    "name": "1  Crowborough",
    "latitude": 50.8632,
    "longitude": 0.1542,
    "altitude_m": 0,
    "country": "Europe",
    "telescope_type": "optical"
  },
  {
    "code": "002",
    "name": "Rayleigh",
    "latitude": 51.4657,
    "longitude": 0.62,
    "altitude_m": 0,
    "country": "Europe",
    "telescope_type": "optical"
  },
  {
    "code": "003",
    "name": "Montpellier",
    "latitude": 43.4584,
    "longitude": 3.9,
    "altitude_m": 0,
    "country": "Europe",
    "telescope_type": "optical"
  },
  {
    "code": "004",
    "name": "7  Toulouse",
    "latitude": 43.4172,
    "longitude": 1.4625,
    "altitude_m": 0,
    "country": "Europe",
    "telescope_type": "optical"
  },
  {
    "code": "008",
    "name": "8  Algiers-Bouzar\u00e9ah",
    "latitude": 36.6134,
    "longitude": 3.0355,
    "altitude_m": 0,
    "country": "Europe",
    "telescope_type": "optical"
  },
  {
    "code": "009",
    "name": "Berne-Uecht",
    "latitude": 46.7618,
    "longitude": 7.4417,
    "altitude_m": 0,
    "country": "Europe",
    "telescope_type": "optical"
  },
  {
    "code": "011",
    "name": "1  Wetzikon",
    "latitude": 47.1271,
    "longitude": 8.7975,
    "altitude_m": 0,
    "country": "Europe",
    "telescope_type": "optical"
  },
  {
    "code": "016",
    "name": "6  Besan\u00e7on",
    "latitude": 47.0558,
    "longitude": 5.9893,
    "altitude_m": 0,
    "country": "Europe",
    "telescope_type": "optical"
  },
  {
    "code": "018",
    "name": "8  D\u00fcsseldorf-Bilk",
    "latitude": 51.016,
    "longitude": 6.7612,
    "altitude_m": 0,
    "country": "Europe",
    "telescope_type": "optical"
  },
  {
    "code": "019",
    "name": "9  Neuch\u00e2tel",
    "latitude": 46.8019,
    "longitude": 6.9575,
    "altitude_m": 0,
    "country": "Europe",
    "telescope_type": "optical"
  },
  {
    "code": "020",
    "name": "7  Nice",
    "latitude": 43.5264,
    "longitude": 7.3004,
    "altitude_m": 0,
    "country": "Europe",
    "telescope_type": "optical"
  },
  {
    "code": "021",
    "name": "8  Karlsruhe",
    "latitude": 48.8304,
    "longitude": 8.3855,
    "altitude_m": 0,
    "country": "Europe",
    "telescope_type": "optical"
  },
  {
    "code": "022",
    "name": "9  Pino Torinese",
    "latitude": 44.8417,
    "longitude": 7.7748,
    "altitude_m": 0,
    "country": "Europe",
    "telescope_type": "optical"
  },
  {
    "code": "023",
    "name": "5  Wiesbaden",
    "latitude": 49.8898,
    "longitude": 8.2625,
    "altitude_m": 0,
    "country": "Europe",
    "telescope_type": "optical"
  },
  {
    "code": "024",
    "name": "0  Heidelberg-K\u00f6nigstuhl",
    "latitude": 49.2084,
    "longitude": 8.7216,
    "altitude_m": 0,
    "country": "Europe",
    "telescope_type": "optical"
  },
  {
    "code": "027",
    "name": "9  Milan",
    "latitude": 45.2703,
    "longitude": 9.1912,
    "altitude_m": 0,
    "country": "Europe",
    "telescope_type": "optical"
  },
  {
    "code": "028",
    "name": "9  W\u00fcrzburg",
    "latitude": 49.5978,
    "longitude": 9.9363,
    "altitude_m": 0,
    "country": "Europe",
    "telescope_type": "optical"
  },
  {
    "code": "029",
    "name": "0  Hamburg-Bergedorf",
    "latitude": 53.2955,
    "longitude": 10.2406,
    "altitude_m": 0,
    "country": "Europe",
    "telescope_type": "optical"
  },
  {
    "code": "037",
    "name": "6  Collurania Observatory, Teramo",
    "latitude": 42.4632,
    "longitude": 13.7333,
    "altitude_m": 0,
    "country": "Europe",
    "telescope_type": "optical"
  },
  {
    "code": "038",
    "name": "4  Trieste",
    "latitude": 45.4493,
    "longitude": 13.7704,
    "altitude_m": 0,
    "country": "Europe",
    "telescope_type": "optical"
  },
  {
    "code": "039",
    "name": "3  Lund",
    "latitude": 55.5175,
    "longitude": 13.1874,
    "altitude_m": 0,
    "country": "Europe",
    "telescope_type": "optical"
  },
  {
    "code": "040",
    "name": "7  Lohrmann Institute, Dresden",
    "latitude": 50.8403,
    "longitude": 13.7298,
    "altitude_m": 0,
    "country": "Europe",
    "telescope_type": "optical"
  },
  {
    "code": "044",
    "name": "2  Capodimonte Observatory, Naples",
    "latitude": 40.6717,
    "longitude": 14.2559,
    "altitude_m": 0,
    "country": "Europe",
    "telescope_type": "optical"
  },
  {
    "code": "045",
    "name": "7  Vienna (since 1879)",
    "latitude": 48.038,
    "longitude": 16.339,
    "altitude_m": 0,
    "country": "Europe",
    "telescope_type": "optical"
  },
  {
    "code": "046",
    "name": "5  Kle\u0165 Observatory, \u010cesk\u00e9 Bud\u011bjovice",
    "latitude": 48.6707,
    "longitude": 14.2881,
    "altitude_m": 0,
    "country": "Europe",
    "telescope_type": "optical"
  },
  {
    "code": "047",
    "name": "4  Pozna\u0144",
    "latitude": 52.2109,
    "longitude": 16.8782,
    "altitude_m": 0,
    "country": "Europe",
    "telescope_type": "optical"
  },
  {
    "code": "049",
    "name": "Uppsala-Kvistaberg",
    "latitude": 59.3318,
    "longitude": 17.6067,
    "altitude_m": 0,
    "country": "Europe",
    "telescope_type": "infrared"
  },
  {
    "code": "050",
    "name": "0  Stockholm (before 1931)",
    "latitude": 59.1732,
    "longitude": 18.0582,
    "altitude_m": 0,
    "country": "Europe",
    "telescope_type": "optical"
  },
  {
    "code": "051",
    "name": "8  Royal Observatory, Cape of Good Hope",
    "latitude": -33.7521,
    "longitude": 18.4766,
    "altitude_m": 0,
    "country": "Unknown",
    "telescope_type": "optical"
  },
  {
    "code": "052",
    "name": "7  Stockholm-Saltsj\u00f6baden",
    "latitude": 59.1003,
    "longitude": 18.3083,
    "altitude_m": 0,
    "country": "Europe",
    "telescope_type": "optical"
  },
  {
    "code": "053",
    "name": "3  Konkoly Observatory, Budapest (since 1933)",
    "latitude": 47.3067,
    "longitude": 18.9642,
    "altitude_m": 0,
    "country": "Europe",
    "telescope_type": "optical"
  },
  {
    "code": "054",
    "name": "9  Brorfelde",
    "latitude": 55.4394,
    "longitude": 11.6654,
    "altitude_m": 0,
    "country": "Europe",
    "telescope_type": "optical"
  },
  {
    "code": "055",
    "name": "6  Cracow",
    "latitude": 49.8728,
    "longitude": 19.9596,
    "altitude_m": 0,
    "country": "Europe",
    "telescope_type": "optical"
  },
  {
    "code": "057",
    "name": "6  Belgrade",
    "latitude": 44.6088,
    "longitude": 20.5133,
    "altitude_m": 0,
    "country": "Europe",
    "telescope_type": "optical"
  },
  {
    "code": "058",
    "name": "2  Kaliningrad",
    "latitude": 54.5305,
    "longitude": 20.495,
    "altitude_m": 0,
    "country": "Europe",
    "telescope_type": "optical"
  },
  {
    "code": "059",
    "name": "4  Lomnick\u00fd \u0160t\u00edt",
    "latitude": 49.0041,
    "longitude": 20.2201,
    "altitude_m": 0,
    "country": "Europe",
    "telescope_type": "optical"
  },
  {
    "code": "060",
    "name": "5  Warsaw-Ostrowik",
    "latitude": 51.9015,
    "longitude": 21.42,
    "altitude_m": 0,
    "country": "Europe",
    "telescope_type": "optical"
  },
  {
    "code": "062",
    "name": "2  Turku",
    "latitude": 60.2865,
    "longitude": 22.2293,
    "altitude_m": 0,
    "country": "Europe",
    "telescope_type": "optical"
  },
  {
    "code": "063",
    "name": "1  Turku-Tuorla",
    "latitude": 60.25,
    "longitude": 22.445,
    "altitude_m": 0,
    "country": "Europe",
    "telescope_type": "optical"
  },
  {
    "code": "064",
    "name": "5  Turku-Kevola",
    "latitude": 60.2535,
    "longitude": 22.75,
    "altitude_m": 0,
    "country": "Europe",
    "telescope_type": "optical"
  },
  {
    "code": "065",
    "name": "0  Traunstein",
    "latitude": 47.6706,
    "longitude": 12.6318,
    "altitude_m": 0,
    "country": "Europe",
    "telescope_type": "optical"
  },
  {
    "code": "067",
    "name": "8  Lviv University Observatory",
    "latitude": 49.6401,
    "longitude": 24.0297,
    "altitude_m": 0,
    "country": "Europe",
    "telescope_type": "optical"
  },
  {
    "code": "069",
    "name": "7  Baldone",
    "latitude": 56.5943,
    "longitude": 24.4042,
    "altitude_m": 0,
    "country": "Europe",
    "telescope_type": "optical"
  },
  {
    "code": "070",
    "name": "3  Vilnius (before 1939)",
    "latitude": 54.5004,
    "longitude": 25.2865,
    "altitude_m": 0,
    "country": "Europe",
    "telescope_type": "optical"
  },
  {
    "code": "071",
    "name": "5  NAO Rozhen, Smolyan",
    "latitude": 41.5,
    "longitude": 24.7378,
    "altitude_m": 0,
    "country": "Europe",
    "telescope_type": "optical"
  },
  {
    "code": "072",
    "name": "Scheuren Observatory",
    "latitude": 50.9006,
    "longitude": 7.17,
    "altitude_m": 0,
    "country": "Europe",
    "telescope_type": "optical"
  },
  {
    "code": "074",
    "name": "3  Boyden Observatory, Bloemfontein",
    "latitude": -28.8736,
    "longitude": 26.4058,
    "altitude_m": 0,
    "country": "Unknown",
    "telescope_type": "optical"
  },
  {
    "code": "075",
    "name": "1  Tartu",
    "latitude": 58.2073,
    "longitude": 26.7216,
    "altitude_m": 0,
    "country": "Europe",
    "telescope_type": "optical"
  },
  {
    "code": "076",
    "name": "5  Johannesburg-Hartbeespoort",
    "latitude": -25.6198,
    "longitude": 27.8768,
    "altitude_m": 0,
    "country": "Unknown",
    "telescope_type": "optical"
  },
  {
    "code": "077",
    "name": "6  Yale-Columbia Station, Johannesburg",
    "latitude": -26.0321,
    "longitude": 28.0292,
    "altitude_m": 0,
    "country": "Unknown",
    "telescope_type": "optical"
  },
  {
    "code": "079",
    "name": "1  Radcliffe Observatory, Pretoria",
    "latitude": -25.6371,
    "longitude": 28.2288,
    "altitude_m": 0,
    "country": "Unknown",
    "telescope_type": "optical"
  },
  {
    "code": "080",
    "name": "8  Istanbul",
    "latitude": 40.8188,
    "longitude": 28.9667,
    "altitude_m": 0,
    "country": "Europe",
    "telescope_type": "optical"
  },
  {
    "code": "082",
    "name": "3  St. P\u00f6lten",
    "latitude": 47.8955,
    "longitude": 15.7561,
    "altitude_m": 0,
    "country": "Europe",
    "telescope_type": "optical"
  },
  {
    "code": "083",
    "name": "1  Holosiivskyi district-Kyiv",
    "latitude": 50.1755,
    "longitude": 30.5056,
    "altitude_m": 0,
    "country": "Europe",
    "telescope_type": "optical"
  },
  {
    "code": "084",
    "name": "1  Pulkovo",
    "latitude": 59.6041,
    "longitude": 30.3274,
    "altitude_m": 0,
    "country": "Europe",
    "telescope_type": "optical"
  },
  {
    "code": "085",
    "name": "9  Kyiv",
    "latitude": 50.2606,
    "longitude": 30.5023,
    "altitude_m": 0,
    "country": "Europe",
    "telescope_type": "optical"
  },
  {
    "code": "086",
    "name": "2  Odesa",
    "latitude": 46.2838,
    "longitude": 30.7582,
    "altitude_m": 0,
    "country": "Europe",
    "telescope_type": "optical"
  },
  {
    "code": "087",
    "name": "5  Helwan",
    "latitude": 29.6904,
    "longitude": 31.3411,
    "altitude_m": 0,
    "country": "Africa",
    "telescope_type": "optical"
  },
  {
    "code": "089",
    "name": "3  Mykolaiv",
    "latitude": 46.7784,
    "longitude": 31.9747,
    "altitude_m": 0,
    "country": "Europe",
    "telescope_type": "optical"
  },
  {
    "code": "090",
    "name": "Mainz",
    "latitude": 49.7535,
    "longitude": 8.25,
    "altitude_m": 0,
    "country": "Europe",
    "telescope_type": "optical"
  },
  {
    "code": "092",
    "name": "1  Torun-Piwnice",
    "latitude": 52.911,
    "longitude": 18.5546,
    "altitude_m": 0,
    "country": "Europe",
    "telescope_type": "optical"
  },
  {
    "code": "093",
    "name": "Skibotn",
    "latitude": 69.222,
    "longitude": 20.3647,
    "altitude_m": 0,
    "country": "Europe",
    "telescope_type": "optical"
  },
  {
    "code": "094",
    "name": "0  Crimea-Simeiz",
    "latitude": 44.2107,
    "longitude": 33.9974,
    "altitude_m": 0,
    "country": "Europe",
    "telescope_type": "optical"
  },
  {
    "code": "095",
    "name": "4  Crimea-Nauchnyi",
    "latitude": 44.5325,
    "longitude": 34.016,
    "altitude_m": 0,
    "country": "Europe",
    "telescope_type": "optical"
  },
  {
    "code": "096",
    "name": "5  Merate",
    "latitude": 45.5045,
    "longitude": 9.4283,
    "altitude_m": 0,
    "country": "Europe",
    "telescope_type": "optical"
  },
  {
    "code": "101",
    "name": "6  Kharkiv",
    "latitude": 49.8109,
    "longitude": 36.2322,
    "altitude_m": 0,
    "country": "Asia",
    "telescope_type": "optical"
  },
  {
    "code": "105",
    "name": "2  Moscow",
    "latitude": 55.5758,
    "longitude": 37.5706,
    "altitude_m": 0,
    "country": "Unknown",
    "telescope_type": "optical"
  },
  {
    "code": "106",
    "name": "9  \u010crni Vrh",
    "latitude": 45.75,
    "longitude": 14.0711,
    "altitude_m": 0,
    "country": "Europe",
    "telescope_type": "optical"
  },
  {
    "code": "107",
    "name": "6  Cavezzo",
    "latitude": 44.668,
    "longitude": 11.003,
    "altitude_m": 0,
    "country": "Europe",
    "telescope_type": "optical"
  },
  {
    "code": "108",
    "name": "4  Montelupo",
    "latitude": 43.5442,
    "longitude": 11.0278,
    "altitude_m": 0,
    "country": "Europe",
    "telescope_type": "optical"
  },
  {
    "code": "109",
    "name": "1  Algiers-Kouba",
    "latitude": 36.5483,
    "longitude": 3.0705,
    "altitude_m": 0,
    "country": "Europe",
    "telescope_type": "optical"
  },
  {
    "code": "110",
    "name": "3  Rostov",
    "latitude": 57.0127,
    "longitude": 39.415,
    "altitude_m": 0,
    "country": "Unknown",
    "telescope_type": "optical"
  },
  {
    "code": "111",
    "name": "0  Piazzano Observatory, Florence",
    "latitude": 43.4867,
    "longitude": 10.9721,
    "altitude_m": 0,
    "country": "Europe",
    "telescope_type": "optical"
  },
  {
    "code": "112",
    "name": "0  Pleiade Observatory, Verona",
    "latitude": 45.2914,
    "longitude": 10.9039,
    "altitude_m": 0,
    "country": "Europe",
    "telescope_type": "optical"
  },
  {
    "code": "113",
    "name": "1  Volkssternwarte Drebach, Schoenbrunn",
    "latitude": 50.4876,
    "longitude": 13.0166,
    "altitude_m": 0,
    "country": "Europe",
    "telescope_type": "optical"
  },
  {
    "code": "114",
    "name": "2  Engelhardt Observatory, Zelenchukskaya Station",
    "latitude": 43.4628,
    "longitude": 41.4277,
    "altitude_m": 0,
    "country": "Asia",
    "telescope_type": "radio"
  },
  {
    "code": "116",
    "name": "4  Giesing",
    "latitude": 47.9223,
    "longitude": 11.5958,
    "altitude_m": 0,
    "country": "Europe",
    "telescope_type": "optical"
  },
  {
    "code": "117",
    "name": "2  Sendling",
    "latitude": 47.9206,
    "longitude": 11.5385,
    "altitude_m": 0,
    "country": "Europe",
    "telescope_type": "optical"
  },
  {
    "code": "118",
    "name": "4  Astronomical and Geophysical Observatory, Modra",
    "latitude": 48.1805,
    "longitude": 17.274,
    "altitude_m": 0,
    "country": "Europe",
    "telescope_type": "optical"
  },
  {
    "code": "119",
    "name": "2  Abastuman",
    "latitude": 41.5617,
    "longitude": 42.82,
    "altitude_m": 0,
    "country": "Asia",
    "telescope_type": "optical"
  },
  {
    "code": "120",
    "name": "9  Vi\u0161njan",
    "latitude": 45.0816,
    "longitude": 13.7261,
    "altitude_m": 0,
    "country": "Europe",
    "telescope_type": "optical"
  },
  {
    "code": "122",
    "name": "6  Pises Observatory",
    "latitude": 43.8448,
    "longitude": 3.5035,
    "altitude_m": 0,
    "country": "Europe",
    "telescope_type": "optical"
  },
  {
    "code": "123",
    "name": "8  Byurakan",
    "latitude": 40.142,
    "longitude": 44.2917,
    "altitude_m": 0,
    "country": "Asia",
    "telescope_type": "optical"
  },
  {
    "code": "124",
    "name": "2  Castres",
    "latitude": 43.4075,
    "longitude": 2.255,
    "altitude_m": 0,
    "country": "Europe",
    "telescope_type": "optical"
  },
  {
    "code": "127",
    "name": "8  Bornheim",
    "latitude": 50.5686,
    "longitude": 6.9797,
    "altitude_m": 0,
    "country": "Europe",
    "telescope_type": "optical"
  },
  {
    "code": "129",
    "name": "Ordubad",
    "latitude": 38.9464,
    "longitude": 45.92,
    "altitude_m": 0,
    "country": "Asia",
    "telescope_type": "optical"
  },
  {
    "code": "131",
    "name": "Observatoire de l'Ardeche",
    "latitude": 44.4846,
    "longitude": 4.725,
    "altitude_m": 0,
    "country": "Europe",
    "telescope_type": "optical"
  },
  {
    "code": "132",
    "name": "0  Bedoin",
    "latitude": 43.921,
    "longitude": 5.2461,
    "altitude_m": 0,
    "country": "Europe",
    "telescope_type": "optical"
  },
  {
    "code": "133",
    "name": "9  Les Tardieux",
    "latitude": 43.1659,
    "longitude": 5.0906,
    "altitude_m": 0,
    "country": "Europe",
    "telescope_type": "optical"
  },
  {
    "code": "135",
    "name": "4  Kasan",
    "latitude": 55.6093,
    "longitude": 49.121,
    "altitude_m": 0,
    "country": "Unknown",
    "telescope_type": "optical"
  },
  {
    "code": "136",
    "name": "3  Engelhardt Observatory, Kasan",
    "latitude": 55.6591,
    "longitude": 48.8156,
    "altitude_m": 0,
    "country": "Unknown",
    "telescope_type": "optical"
  },
  {
    "code": "137",
    "name": "0  Givatayim Observatory",
    "latitude": 31.8969,
    "longitude": 34.8147,
    "altitude_m": 0,
    "country": "Africa",
    "telescope_type": "optical"
  },
  {
    "code": "138",
    "name": "4  Village-Neuf",
    "latitude": 47.4116,
    "longitude": 7.5717,
    "altitude_m": 0,
    "country": "Europe",
    "telescope_type": "optical"
  },
  {
    "code": "139",
    "name": "8  Antibes",
    "latitude": 43.4107,
    "longitude": 7.1108,
    "altitude_m": 0,
    "country": "Europe",
    "telescope_type": "optical"
  },
  {
    "code": "140",
    "name": "1  Augerolles",
    "latitude": 45.5255,
    "longitude": 3.6294,
    "altitude_m": 0,
    "country": "Europe",
    "telescope_type": "optical"
  },
  {
    "code": "141",
    "name": "9  Hottviller",
    "latitude": 48.873,
    "longitude": 7.3672,
    "altitude_m": 0,
    "country": "Europe",
    "telescope_type": "optical"
  },
  {
    "code": "142",
    "name": "5  Sinsen",
    "latitude": 51.4747,
    "longitude": 7.1874,
    "altitude_m": 0,
    "country": "Europe",
    "telescope_type": "optical"
  },
  {
    "code": "144",
    "name": "8  Bray et Lu",
    "latitude": 48.9452,
    "longitude": 1.666,
    "altitude_m": 0,
    "country": "Europe",
    "telescope_type": "optical"
  },
  {
    "code": "145",
    "name": "4  's-Gravenwezel",
    "latitude": 51.0506,
    "longitude": 4.5597,
    "altitude_m": 0,
    "country": "Europe",
    "telescope_type": "optical"
  },
  {
    "code": "146",
    "name": "7  Frignano",
    "latitude": 44.0931,
    "longitude": 10.6673,
    "altitude_m": 0,
    "country": "Europe",
    "telescope_type": "optical"
  },
  {
    "code": "148",
    "name": "7  Guitalens",
    "latitude": 43.4493,
    "longitude": 2.0375,
    "altitude_m": 0,
    "country": "Europe",
    "telescope_type": "optical"
  },
  {
    "code": "149",
    "name": "6  Beine-Nauroy",
    "latitude": 49.0574,
    "longitude": 4.2236,
    "altitude_m": 0,
    "country": "Europe",
    "telescope_type": "optical"
  },
  {
    "code": "150",
    "name": "5  Maisons Laffitte",
    "latitude": 48.751,
    "longitude": 2.1572,
    "altitude_m": 0,
    "country": "Europe",
    "telescope_type": "optical"
  },
  {
    "code": "151",
    "name": "6  Eschenberg Observatory, Winterthur",
    "latitude": 47.2819,
    "longitude": 8.744,
    "altitude_m": 0,
    "country": "Europe",
    "telescope_type": "optical"
  },
  {
    "code": "152",
    "name": "8  Moletai Astronomical Observatory",
    "latitude": 55.1331,
    "longitude": 25.5633,
    "altitude_m": 0,
    "country": "Europe",
    "telescope_type": "optical"
  },
  {
    "code": "153",
    "name": "4  Stuttgart-Hoffeld",
    "latitude": 48.5457,
    "longitude": 9.1747,
    "altitude_m": 0,
    "country": "Europe",
    "telescope_type": "optical"
  },
  {
    "code": "154",
    "name": "0  Cortina",
    "latitude": 46.35,
    "longitude": 12.1043,
    "altitude_m": 0,
    "country": "Europe",
    "telescope_type": "optical"
  },
  {
    "code": "155",
    "name": "4  Ole Romer Observatory, Aarhus",
    "latitude": 55.948,
    "longitude": 10.1971,
    "altitude_m": 0,
    "country": "Europe",
    "telescope_type": "optical"
  },
  {
    "code": "156",
    "name": "9  Catania Astrophysical Observatory",
    "latitude": 37.3136,
    "longitude": 15.0858,
    "altitude_m": 0,
    "country": "Europe",
    "telescope_type": "optical"
  },
  {
    "code": "157",
    "name": "4  Frasso Sabino",
    "latitude": 42.0344,
    "longitude": 12.8117,
    "altitude_m": 0,
    "country": "Europe",
    "telescope_type": "optical"
  },
  {
    "code": "158",
    "name": "3  Promiod",
    "latitude": 45.592,
    "longitude": 7.6033,
    "altitude_m": 0,
    "country": "Europe",
    "telescope_type": "optical"
  },
  {
    "code": "159",
    "name": "5  Monte Agliale",
    "latitude": 43.8009,
    "longitude": 10.5153,
    "altitude_m": 0,
    "country": "Europe",
    "telescope_type": "optical"
  },
  {
    "code": "161",
    "name": "7  Cerrina Tololo Observatory",
    "latitude": 44.8925,
    "longitude": 8.1605,
    "altitude_m": 0,
    "country": "Europe",
    "telescope_type": "optical"
  },
  {
    "code": "162",
    "name": "8  Potenza",
    "latitude": 40.4564,
    "longitude": 15.7805,
    "altitude_m": 0,
    "country": "Europe",
    "telescope_type": "optical"
  },
  {
    "code": "163",
    "name": "1  Roeser Observatory, Luxembourg",
    "latitude": 49.3527,
    "longitude": 6.1492,
    "altitude_m": 0,
    "country": "Europe",
    "telescope_type": "optical"
  },
  {
    "code": "164",
    "name": "5  St. Michel sur Meurthe",
    "latitude": 48.1224,
    "longitude": 6.8861,
    "altitude_m": 0,
    "country": "Europe",
    "telescope_type": "optical"
  },
  {
    "code": "165",
    "name": "6  Piera Observatory, Barcelona",
    "latitude": 41.328,
    "longitude": 1.7553,
    "altitude_m": 0,
    "country": "Europe",
    "telescope_type": "optical"
  },
  {
    "code": "166",
    "name": "2  Upice",
    "latitude": 50.3172,
    "longitude": 16.0117,
    "altitude_m": 0,
    "country": "Europe",
    "telescope_type": "optical"
  },
  {
    "code": "167",
    "name": "8  B\u00fclach Observatory",
    "latitude": 47.3255,
    "longitude": 8.5727,
    "altitude_m": 0,
    "country": "Europe",
    "telescope_type": "optical"
  },
  {
    "code": "168",
    "name": "1  Kourovskaya",
    "latitude": 56.8606,
    "longitude": 59.5472,
    "altitude_m": 0,
    "country": "Unknown",
    "telescope_type": "radio"
  },
  {
    "code": "169",
    "name": "3  Airali Observatory",
    "latitude": 44.8835,
    "longitude": 8.4016,
    "altitude_m": 0,
    "country": "Europe",
    "telescope_type": "optical"
  },
  {
    "code": "170",
    "name": "1  Observatorio de Begues",
    "latitude": 41.1406,
    "longitude": 1.9206,
    "altitude_m": 0,
    "country": "Europe",
    "telescope_type": "optical"
  },
  {
    "code": "171",
    "name": "7  Flarestar Observatory, San Gwann",
    "latitude": 35.7241,
    "longitude": 14.4697,
    "altitude_m": 0,
    "country": "Africa",
    "telescope_type": "optical"
  },
  {
    "code": "172",
    "name": "9  Onnens",
    "latitude": 46.598,
    "longitude": 7.0364,
    "altitude_m": 0,
    "country": "Europe",
    "telescope_type": "optical"
  },
  {
    "code": "173",
    "name": "7  St. Clotilde, R\u00e9union",
    "latitude": -20.7659,
    "longitude": 55.5061,
    "altitude_m": 0,
    "country": "Unknown",
    "telescope_type": "optical"
  },
  {
    "code": "174",
    "name": "9  Nyr\u00f6l\u00e4 Observatory, Jyv\u00e4skyl\u00e4",
    "latitude": 62.1857,
    "longitude": 25.5131,
    "altitude_m": 0,
    "country": "Europe",
    "telescope_type": "optical"
  },
  {
    "code": "175",
    "name": "F.-X. Bagnoud Observatory, St-Luc",
    "latitude": 46.0387,
    "longitude": 7.6083,
    "altitude_m": 0,
    "country": "Europe",
    "telescope_type": "optical"
  },
  {
    "code": "176",
    "name": "5  Observatorio Astron\u00f3mico de Consell",
    "latitude": 39.4625,
    "longitude": 2.8225,
    "altitude_m": 0,
    "country": "Europe",
    "telescope_type": "optical"
  },
  {
    "code": "178",
    "name": "5  Collonges",
    "latitude": 45.9403,
    "longitude": 6.1344,
    "altitude_m": 0,
    "country": "Europe",
    "telescope_type": "optical"
  },
  {
    "code": "179",
    "name": "7  Monte Generoso",
    "latitude": 45.7328,
    "longitude": 9.0175,
    "altitude_m": 0,
    "country": "Europe",
    "telescope_type": "optical"
  },
  {
    "code": "180",
    "name": "0  Mauguio",
    "latitude": 43.3762,
    "longitude": 3.9519,
    "altitude_m": 0,
    "country": "Europe",
    "telescope_type": "optical"
  },
  {
    "code": "181",
    "name": "1  Observatoire des Makes, Saint-Louis",
    "latitude": -21.0696,
    "longitude": 55.41,
    "altitude_m": 0,
    "country": "Unknown",
    "telescope_type": "optical"
  },
  {
    "code": "182",
    "name": "4  St. Paul, R\u00e9union",
    "latitude": -20.882,
    "longitude": 55.2586,
    "altitude_m": 0,
    "country": "Unknown",
    "telescope_type": "optical"
  },
  {
    "code": "184",
    "name": "7  Valmeca Observatory, Puimichel",
    "latitude": 43.7863,
    "longitude": 6.0361,
    "altitude_m": 0,
    "country": "Europe",
    "telescope_type": "optical"
  },
  {
    "code": "185",
    "name": "0  Observatoire Astronomique Jurassien-Vicques",
    "latitude": 47.1612,
    "longitude": 7.4219,
    "altitude_m": 0,
    "country": "Europe",
    "telescope_type": "optical"
  },
  {
    "code": "186",
    "name": "1  Kitab",
    "latitude": 38.9451,
    "longitude": 66.8821,
    "altitude_m": 0,
    "country": "Asia",
    "telescope_type": "optical"
  },
  {
    "code": "187",
    "name": "5  Astronomical Observatory, Borowiec",
    "latitude": 52.089,
    "longitude": 17.0733,
    "altitude_m": 0,
    "country": "Europe",
    "telescope_type": "optical"
  },
  {
    "code": "189",
    "name": "3  Geneva (before 1967)",
    "latitude": 46.0065,
    "longitude": 6.1514,
    "altitude_m": 0,
    "country": "Europe",
    "telescope_type": "optical"
  },
  {
    "code": "190",
    "name": "9  Gissar",
    "latitude": 38.2989,
    "longitude": 68.6819,
    "altitude_m": 0,
    "country": "Asia",
    "telescope_type": "optical"
  },
  {
    "code": "191",
    "name": "6  Dushanbe",
    "latitude": 38.371,
    "longitude": 68.7811,
    "altitude_m": 0,
    "country": "Asia",
    "telescope_type": "optical"
  },
  {
    "code": "192",
    "name": "2  Tashkent",
    "latitude": 41.1335,
    "longitude": 69.2936,
    "altitude_m": 0,
    "country": "Asia",
    "telescope_type": "optical"
  },
  {
    "code": "193",
    "name": "0  Sanglok",
    "latitude": 38.0739,
    "longitude": 69.2178,
    "altitude_m": 0,
    "country": "Asia",
    "telescope_type": "optical"
  },
  {
    "code": "194",
    "name": "9  Tivoli",
    "latitude": -23.3167,
    "longitude": 18.0094,
    "altitude_m": 0,
    "country": "Unknown",
    "telescope_type": "optical"
  },
  {
    "code": "195",
    "name": "4  Untermenzing Observatory, Munich",
    "latitude": 47.991,
    "longitude": 11.4492,
    "altitude_m": 0,
    "country": "Europe",
    "telescope_type": "optical"
  },
  {
    "code": "196",
    "name": "0  Homburg-Erbach",
    "latitude": 49.1414,
    "longitude": 7.3331,
    "altitude_m": 0,
    "country": "Europe",
    "telescope_type": "optical"
  },
  {
    "code": "197",
    "name": "4  Bastia",
    "latitude": 44.0629,
    "longitude": 12.1836,
    "altitude_m": 0,
    "country": "Europe",
    "telescope_type": "optical"
  },
  {
    "code": "199",
    "name": "4  Telescope Jean-Marc Salomon, Buthiers",
    "latitude": 48.099,
    "longitude": 2.438,
    "altitude_m": 0,
    "country": "Europe",
    "telescope_type": "optical"
  },
  {
    "code": "200",
    "name": "8  Beersel Hills Observatory",
    "latitude": 50.5686,
    "longitude": 4.3036,
    "altitude_m": 0,
    "country": "Europe",
    "telescope_type": "optical"
  },
  {
    "code": "202",
    "name": "1  Tamaris Observatoire, La Seyne sur Mer",
    "latitude": 42.9029,
    "longitude": 5.8997,
    "altitude_m": 0,
    "country": "Europe",
    "telescope_type": "optical"
  },
  {
    "code": "205",
    "name": "3  Obs. Casalecchio di Reno, Bologna",
    "latitude": 44.2785,
    "longitude": 11.2731,
    "altitude_m": 0,
    "country": "Europe",
    "telescope_type": "optical"
  },
  {
    "code": "206",
    "name": "Haagaar Observatory, Eina",
    "latitude": 60.4361,
    "longitude": 10.5667,
    "altitude_m": 0,
    "country": "Europe",
    "telescope_type": "optical"
  },
  {
    "code": "207",
    "name": "5  Osservatorio Antonio Grosso",
    "latitude": 45.3506,
    "longitude": 9.3065,
    "altitude_m": 0,
    "country": "Europe",
    "telescope_type": "optical"
  },
  {
    "code": "208",
    "name": "4  Rivalta",
    "latitude": 44.7553,
    "longitude": 9.5875,
    "altitude_m": 0,
    "country": "Europe",
    "telescope_type": "optical"
  },
  {
    "code": "210",
    "name": "4  Alma-Ata",
    "latitude": 42.9946,
    "longitude": 76.9573,
    "altitude_m": 0,
    "country": "Asia",
    "telescope_type": "radio"
  },
  {
    "code": "211",
    "name": "5  Scandicci",
    "latitude": 43.5682,
    "longitude": 11.1764,
    "altitude_m": 0,
    "country": "Europe",
    "telescope_type": "optical"
  },
  {
    "code": "214",
    "name": "8  Garching Observatory",
    "latitude": 48.0623,
    "longitude": 11.6569,
    "altitude_m": 0,
    "country": "Europe",
    "telescope_type": "optical"
  },
  {
    "code": "215",
    "name": "1  Buchloe",
    "latitude": 47.8255,
    "longitude": 10.7328,
    "altitude_m": 0,
    "country": "Europe",
    "telescope_type": "optical"
  },
  {
    "code": "216",
    "name": "4  Observatoire des C\u00f4te de Meuse",
    "latitude": 48.8094,
    "longitude": 5.6914,
    "altitude_m": 0,
    "country": "Europe",
    "telescope_type": "optical"
  },
  {
    "code": "218",
    "name": "8  Hyderabad",
    "latitude": 17.3178,
    "longitude": 78.4541,
    "altitude_m": 0,
    "country": "India",
    "telescope_type": "optical"
  },
  {
    "code": "219",
    "name": "6  Japal-Rangapur",
    "latitude": 16.9872,
    "longitude": 78.7283,
    "altitude_m": 0,
    "country": "India",
    "telescope_type": "optical"
  },
  {
    "code": "220",
    "name": "4  Vainu Bappu Observatory, Kavalur",
    "latitude": 12.4925,
    "longitude": 78.8263,
    "altitude_m": 0,
    "country": "India",
    "telescope_type": "optical"
  },
  {
    "code": "222",
    "name": "7  Yerres-Canotiers",
    "latitude": 48.5163,
    "longitude": 2.4939,
    "altitude_m": 0,
    "country": "Europe",
    "telescope_type": "optical"
  },
  {
    "code": "223",
    "name": "5  Madras",
    "latitude": 12.9817,
    "longitude": 80.2464,
    "altitude_m": 0,
    "country": "India",
    "telescope_type": "optical"
  },
  {
    "code": "225",
    "name": "Northwood Ridge Observatory",
    "latitude": 43.0357,
    "longitude": -71.175,
    "altitude_m": 0,
    "country": "USA",
    "telescope_type": "optical"
  },
  {
    "code": "226",
    "name": "8  Guido Ruggieri Observatory, Padua",
    "latitude": 45.2382,
    "longitude": 11.8858,
    "altitude_m": 0,
    "country": "Europe",
    "telescope_type": "optical"
  },
  {
    "code": "227",
    "name": "2  OrbitJet Observatory, Colden",
    "latitude": 42.4458,
    "longitude": -78.7147,
    "altitude_m": 0,
    "country": "USA",
    "telescope_type": "optical"
  },
  {
    "code": "228",
    "name": "7  Bruno Zugna Observatory, Trieste",
    "latitude": 45.4472,
    "longitude": 13.875,
    "altitude_m": 0,
    "country": "Europe",
    "telescope_type": "optical"
  },
  {
    "code": "229",
    "name": "7  G. C. Gloriosi Astronomical Observatory, Salerno",
    "latitude": 40.4976,
    "longitude": 14.9743,
    "altitude_m": 0,
    "country": "Europe",
    "telescope_type": "optical"
  },
  {
    "code": "230",
    "name": "Mt. Wendelstein Observatory",
    "latitude": 47.5125,
    "longitude": 12.0133,
    "altitude_m": 0,
    "country": "Europe",
    "telescope_type": "optical"
  },
  {
    "code": "231",
    "name": "3  Vesqueville",
    "latitude": 49.8146,
    "longitude": 5.3983,
    "altitude_m": 0,
    "country": "Europe",
    "telescope_type": "optical"
  },
  {
    "code": "232",
    "name": "Masquefa Observatory",
    "latitude": 41.3176,
    "longitude": 1.3317,
    "altitude_m": 0,
    "country": "Europe",
    "telescope_type": "optical"
  },
  {
    "code": "233",
    "name": "1  Sauro Donati Astronomical Observatory, San Vito",
    "latitude": 43.6624,
    "longitude": 10.5403,
    "altitude_m": 0,
    "country": "Europe",
    "telescope_type": "optical"
  },
  {
    "code": "236",
    "name": "5  Tomsk",
    "latitude": 56.2892,
    "longitude": 84.9465,
    "altitude_m": 0,
    "country": "Unknown",
    "telescope_type": "optical"
  },
  {
    "code": "237",
    "name": "Baugy",
    "latitude": 46.8916,
    "longitude": 2.7333,
    "altitude_m": 0,
    "country": "Europe",
    "telescope_type": "optical"
  },
  {
    "code": "238",
    "name": "7  Grorudalen Optical Observatory",
    "latitude": 59.78,
    "longitude": 10.9094,
    "altitude_m": 0,
    "country": "Europe",
    "telescope_type": "optical"
  },
  {
    "code": "239",
    "name": "9  Trebur",
    "latitude": 49.7324,
    "longitude": 8.4114,
    "altitude_m": 0,
    "country": "Europe",
    "telescope_type": "optical"
  },
  {
    "code": "241",
    "name": "4  Schaerding",
    "latitude": 48.2509,
    "longitude": 13.47,
    "altitude_m": 0,
    "country": "Europe",
    "telescope_type": "optical"
  },
  {
    "code": "242",
    "name": "0  Varennes",
    "latitude": 43.287,
    "longitude": 1.6956,
    "altitude_m": 0,
    "country": "Europe",
    "telescope_type": "optical"
  },
  {
    "code": "243",
    "name": "0  Umbrella Observatory, Fredenbeck",
    "latitude": 53.3439,
    "longitude": 9.413,
    "altitude_m": 0,
    "country": "Europe",
    "telescope_type": "optical"
  },
  {
    "code": "260",
    "name": "6  Siding Spring Observatory-DSS",
    "latitude": -31.1034,
    "longitude": 149.0661,
    "altitude_m": 0,
    "country": "Australia",
    "telescope_type": "optical"
  },
  {
    "code": "277",
    "name": "7  Royal Observatory, Blackford Hill, Edinburgh",
    "latitude": 55.7438,
    "longitude": -3.1825,
    "altitude_m": 0,
    "country": "Europe",
    "telescope_type": "optical"
  },
  {
    "code": "278",
    "name": "9  Peking, Transit of Venus site",
    "latitude": 39.7108,
    "longitude": 116.4494,
    "altitude_m": 0,
    "country": "Asia",
    "telescope_type": "optical"
  },
  {
    "code": "280",
    "name": "6  Lilienthal",
    "latitude": 52.9537,
    "longitude": 8.9118,
    "altitude_m": 0,
    "country": "Europe",
    "telescope_type": "optical"
  },
  {
    "code": "281",
    "name": "3  Bologna",
    "latitude": 44.3028,
    "longitude": 11.3522,
    "altitude_m": 0,
    "country": "Europe",
    "telescope_type": "optical"
  },
  {
    "code": "282",
    "name": "2  N\u00eemes",
    "latitude": 43.6466,
    "longitude": 4.3603,
    "altitude_m": 0,
    "country": "Europe",
    "telescope_type": "optical"
  },
  {
    "code": "283",
    "name": "9  Bremen",
    "latitude": 52.8882,
    "longitude": 8.8163,
    "altitude_m": 0,
    "country": "Europe",
    "telescope_type": "optical"
  },
  {
    "code": "284",
    "name": "9  Driesen",
    "latitude": 52.6496,
    "longitude": 15.8311,
    "altitude_m": 0,
    "country": "Europe",
    "telescope_type": "optical"
  },
  {
    "code": "285",
    "name": "9  Flammarion Observatory, Juvisy",
    "latitude": 48.4992,
    "longitude": 2.3708,
    "altitude_m": 0,
    "country": "Europe",
    "telescope_type": "optical"
  },
  {
    "code": "286",
    "name": "7  Yunnan Observatory",
    "latitude": 24.8747,
    "longitude": 102.7883,
    "altitude_m": 0,
    "country": "Asia",
    "telescope_type": "optical"
  },
  {
    "code": "292",
    "name": "3  Burlington, New Jersey",
    "latitude": 39.8812,
    "longitude": -74.8942,
    "altitude_m": 0,
    "country": "USA",
    "telescope_type": "optical"
  },
  {
    "code": "293",
    "name": "8  Burlington remote site",
    "latitude": 39.6057,
    "longitude": -74.4101,
    "altitude_m": 0,
    "country": "USA",
    "telescope_type": "optical"
  },
  {
    "code": "294",
    "name": "9  Astrophysical Obs., College of Staten Island",
    "latitude": 40.4099,
    "longitude": -74.1533,
    "altitude_m": 0,
    "country": "USA",
    "telescope_type": "optical"
  },
  {
    "code": "295",
    "name": "Catholic University Observatory, Washington",
    "latitude": 38.7485,
    "longitude": -77.0,
    "altitude_m": 0,
    "country": "USA",
    "telescope_type": "optical"
  },
  {
    "code": "296",
    "name": "7  Dudley Observatory, Albany (after 1893)",
    "latitude": 42.459,
    "longitude": -73.78,
    "altitude_m": 0,
    "country": "USA",
    "telescope_type": "optical"
  },
  {
    "code": "297",
    "name": "Middlebury",
    "latitude": 43.8231,
    "longitude": -73.181,
    "altitude_m": 0,
    "country": "USA",
    "telescope_type": "optical"
  },
  {
    "code": "298",
    "name": "8  Van Vleck Observatory",
    "latitude": 41.3608,
    "longitude": -72.6592,
    "altitude_m": 0,
    "country": "USA",
    "telescope_type": "optical"
  },
  {
    "code": "299",
    "name": "8  Bosscha Observatory, Lembang",
    "latitude": -6.7757,
    "longitude": 107.616,
    "altitude_m": 0,
    "country": "Unknown",
    "telescope_type": "optical"
  },
  {
    "code": "301",
    "name": "6  Mont Megantic",
    "latitude": 45.2601,
    "longitude": -71.1533,
    "altitude_m": 0,
    "country": "USA",
    "telescope_type": "optical"
  },
  {
    "code": "302",
    "name": "University of the Andes station",
    "latitude": 8.6156,
    "longitude": -71.12,
    "altitude_m": 0,
    "country": "Unknown",
    "telescope_type": "optical"
  },
  {
    "code": "303",
    "name": "5  OAN de Llano del Hato, M\u00e9rida",
    "latitude": 8.727,
    "longitude": -70.8704,
    "altitude_m": 0,
    "country": "Unknown",
    "telescope_type": "optical"
  },
  {
    "code": "305",
    "name": "3  Purple Mountain, Hainan Island station",
    "latitude": 34.7636,
    "longitude": 109.5514,
    "altitude_m": 0,
    "country": "Asia",
    "telescope_type": "optical"
  },
  {
    "code": "306",
    "name": "1  Observatorio Taya Beixo, Barquisimeto",
    "latitude": 10.0089,
    "longitude": -69.3231,
    "altitude_m": 0,
    "country": "Unknown",
    "telescope_type": "optical"
  },
  {
    "code": "307",
    "name": "3  Shattuck Observatory, Hanover",
    "latitude": 43.5106,
    "longitude": -72.2834,
    "altitude_m": 0,
    "country": "USA",
    "telescope_type": "optical"
  },
  {
    "code": "312",
    "name": "Tsingtao field station, Xisha Islands",
    "latitude": 16.7256,
    "longitude": 112.334,
    "altitude_m": 0,
    "country": "Unknown",
    "telescope_type": "optical"
  },
  {
    "code": "318",
    "name": "0  Quinns Rock",
    "latitude": -31.4783,
    "longitude": 115.691,
    "altitude_m": 0,
    "country": "Australia",
    "telescope_type": "optical"
  },
  {
    "code": "319",
    "name": "2  Perth Observatory, Perth-Lowell Telescope",
    "latitude": -31.8343,
    "longitude": 116.135,
    "altitude_m": 0,
    "country": "Australia",
    "telescope_type": "optical"
  },
  {
    "code": "320",
    "name": "2  Chiro Observatory",
    "latitude": -30.7595,
    "longitude": 116.4381,
    "altitude_m": 0,
    "country": "Australia",
    "telescope_type": "optical"
  },
  {
    "code": "321",
    "name": "8  Craigie",
    "latitude": -31.6145,
    "longitude": 115.7571,
    "altitude_m": 0,
    "country": "Australia",
    "telescope_type": "optical"
  },
  {
    "code": "324",
    "name": "2  Peking Observatory, Shaho Station",
    "latitude": 39.9106,
    "longitude": 116.3277,
    "altitude_m": 0,
    "country": "Asia",
    "telescope_type": "optical"
  },
  {
    "code": "327",
    "name": "0  Peking Observatory, Xinglong Station",
    "latitude": 40.2044,
    "longitude": 117.575,
    "altitude_m": 0,
    "country": "Asia",
    "telescope_type": "optical"
  },
  {
    "code": "330",
    "name": "8  Purple Mountain Observatory, Nanking",
    "latitude": 31.8899,
    "longitude": 118.8209,
    "altitude_m": 0,
    "country": "Asia",
    "telescope_type": "optical"
  },
  {
    "code": "333",
    "name": "2  Desert Eagle Observatory",
    "latitude": 31.789,
    "longitude": -110.4764,
    "altitude_m": 0,
    "country": "USA",
    "telescope_type": "optical"
  },
  {
    "code": "334",
    "name": "2  Tsingtao",
    "latitude": 35.8861,
    "longitude": 120.3196,
    "altitude_m": 0,
    "country": "Asia",
    "telescope_type": "optical"
  },
  {
    "code": "337",
    "name": "8  Sheshan",
    "latitude": 30.9221,
    "longitude": 121.1843,
    "altitude_m": 0,
    "country": "Asia",
    "telescope_type": "optical"
  },
  {
    "code": "340",
    "name": "2  Toyonaka",
    "latitude": 34.6258,
    "longitude": 135.4853,
    "altitude_m": 0,
    "country": "Asia",
    "telescope_type": "optical"
  },
  {
    "code": "341",
    "name": "3  Akashina",
    "latitude": 36.1441,
    "longitude": 137.9486,
    "altitude_m": 0,
    "country": "Asia",
    "telescope_type": "optical"
  },
  {
    "code": "342",
    "name": "5  Shishikui",
    "latitude": 33.3719,
    "longitude": 134.3189,
    "altitude_m": 0,
    "country": "Asia",
    "telescope_type": "optical"
  },
  {
    "code": "343",
    "name": "7  Younchun",
    "latitude": 38.01,
    "longitude": 127.1258,
    "altitude_m": 0,
    "country": "Asia",
    "telescope_type": "optical"
  },
  {
    "code": "344",
    "name": "5  Bohyunsan Optical Astronomy Observatory",
    "latitude": 35.9794,
    "longitude": 128.9767,
    "altitude_m": 0,
    "country": "Asia",
    "telescope_type": "optical"
  },
  {
    "code": "345",
    "name": "3  Sobaeksan Optical Astronomy Observatory",
    "latitude": 36.7485,
    "longitude": 128.4575,
    "altitude_m": 0,
    "country": "Asia",
    "telescope_type": "optical"
  },
  {
    "code": "346",
    "name": "6  KNUE Astronomical Observatory",
    "latitude": 36.3213,
    "longitude": 127.3854,
    "altitude_m": 0,
    "country": "Asia",
    "telescope_type": "optical"
  },
  {
    "code": "347",
    "name": "4  Utsunomiya-Imaizumi",
    "latitude": 36.3776,
    "longitude": 139.9086,
    "altitude_m": 0,
    "country": "Asia",
    "telescope_type": "solar"
  },
  {
    "code": "348",
    "name": "5  Ayabe",
    "latitude": 35.1243,
    "longitude": 135.2669,
    "altitude_m": 0,
    "country": "Asia",
    "telescope_type": "optical"
  },
  {
    "code": "350",
    "name": "2  Kurohone",
    "latitude": 36.2972,
    "longitude": 139.2635,
    "altitude_m": 0,
    "country": "Asia",
    "telescope_type": "optical"
  },
  {
    "code": "351",
    "name": "5  Sakamoto",
    "latitude": 34.8852,
    "longitude": 135.8678,
    "altitude_m": 0,
    "country": "Asia",
    "telescope_type": "optical"
  },
  {
    "code": "352",
    "name": "3  Konan",
    "latitude": 34.7652,
    "longitude": 136.1778,
    "altitude_m": 0,
    "country": "Asia",
    "telescope_type": "optical"
  },
  {
    "code": "353",
    "name": "9  Nishi Kobe",
    "latitude": 34.5571,
    "longitude": 135.0648,
    "altitude_m": 0,
    "country": "Asia",
    "telescope_type": "optical"
  },
  {
    "code": "354",
    "name": "4  Kawachi",
    "latitude": 36.681,
    "longitude": 140.0206,
    "altitude_m": 0,
    "country": "Asia",
    "telescope_type": "optical"
  },
  {
    "code": "355",
    "name": "0  Hadano",
    "latitude": 35.207,
    "longitude": 139.2133,
    "altitude_m": 0,
    "country": "Asia",
    "telescope_type": "optical"
  },
  {
    "code": "356",
    "name": "0  Kogota",
    "latitude": 38.3528,
    "longitude": 141.0867,
    "altitude_m": 0,
    "country": "Asia",
    "telescope_type": "optical"
  },
  {
    "code": "357",
    "name": "2  Shimotsuma",
    "latitude": 36.0001,
    "longitude": 140.0064,
    "altitude_m": 0,
    "country": "Asia",
    "telescope_type": "optical"
  },
  {
    "code": "358",
    "name": "6  Nanyo",
    "latitude": 37.8558,
    "longitude": 140.1586,
    "altitude_m": 0,
    "country": "Asia",
    "telescope_type": "optical"
  },
  {
    "code": "359",
    "name": "2  Wakayama",
    "latitude": 34.0346,
    "longitude": 135.1719,
    "altitude_m": 0,
    "country": "Asia",
    "telescope_type": "optical"
  },
  {
    "code": "360",
    "name": "8  Kuma Kogen",
    "latitude": 33.4931,
    "longitude": 132.9442,
    "altitude_m": 0,
    "country": "Asia",
    "telescope_type": "optical"
  },
  {
    "code": "361",
    "name": "6  Sumoto",
    "latitude": 34.1676,
    "longitude": 134.8933,
    "altitude_m": 0,
    "country": "Asia",
    "telescope_type": "optical"
  },
  {
    "code": "362",
    "name": "8  Ray Observatory",
    "latitude": 42.4497,
    "longitude": 140.655,
    "altitude_m": 0,
    "country": "Asia",
    "telescope_type": "optical"
  },
  {
    "code": "363",
    "name": "7  Yamada",
    "latitude": 33.3795,
    "longitude": 130.7703,
    "altitude_m": 0,
    "country": "Asia",
    "telescope_type": "optical"
  },
  {
    "code": "364",
    "name": "4  YCPM Kagoshima Station",
    "latitude": 31.4713,
    "longitude": 130.5747,
    "altitude_m": 0,
    "country": "Asia",
    "telescope_type": "optical"
  },
  {
    "code": "365",
    "name": "6  Uto Observatory",
    "latitude": 34.2271,
    "longitude": 135.9579,
    "altitude_m": 0,
    "country": "Asia",
    "telescope_type": "optical"
  },
  {
    "code": "366",
    "name": "7  Miyasaka Observatory",
    "latitude": 35.6767,
    "longitude": 138.3003,
    "altitude_m": 0,
    "country": "Asia",
    "telescope_type": "optical"
  },
  {
    "code": "367",
    "name": "7  Yatsuka",
    "latitude": 35.315,
    "longitude": 133.167,
    "altitude_m": 0,
    "country": "Asia",
    "telescope_type": "optical"
  },
  {
    "code": "368",
    "name": "1  Ochiai",
    "latitude": 35.622,
    "longitude": 138.8117,
    "altitude_m": 0,
    "country": "Asia",
    "telescope_type": "optical"
  },
  {
    "code": "369",
    "name": "Chichibu",
    "latitude": 35.8064,
    "longitude": 139.15,
    "altitude_m": 0,
    "country": "Asia",
    "telescope_type": "optical"
  },
  {
    "code": "370",
    "name": "6  Kochi",
    "latitude": 33.3722,
    "longitude": 133.5273,
    "altitude_m": 0,
    "country": "Asia",
    "telescope_type": "optical"
  },
  {
    "code": "371",
    "name": "1  Tokyo-Okayama",
    "latitude": 34.3938,
    "longitude": 133.5965,
    "altitude_m": 0,
    "country": "Asia",
    "telescope_type": "optical"
  },
  {
    "code": "372",
    "name": "0  Geisei",
    "latitude": 33.3497,
    "longitude": 133.8276,
    "altitude_m": 0,
    "country": "Asia",
    "telescope_type": "optical"
  },
  {
    "code": "373",
    "name": "7  Oishi",
    "latitude": 33.9506,
    "longitude": 135.3397,
    "altitude_m": 0,
    "country": "Asia",
    "telescope_type": "optical"
  },
  {
    "code": "374",
    "name": "4  Minami-Oda Observatory",
    "latitude": 34.9119,
    "longitude": 134.7196,
    "altitude_m": 0,
    "country": "Asia",
    "telescope_type": "optical"
  },
  {
    "code": "375",
    "name": "Uzurano",
    "latitude": 34.7702,
    "longitude": 134.8708,
    "altitude_m": 0,
    "country": "Asia",
    "telescope_type": "optical"
  },
  {
    "code": "376",
    "name": "2  Uenohara",
    "latitude": 35.5067,
    "longitude": 139.0392,
    "altitude_m": 0,
    "country": "Asia",
    "telescope_type": "optical"
  },
  {
    "code": "377",
    "name": "1  Kwasan Observatory, Kyoto",
    "latitude": 34.8136,
    "longitude": 135.7933,
    "altitude_m": 0,
    "country": "Asia",
    "telescope_type": "optical"
  },
  {
    "code": "378",
    "name": "6  Murou",
    "latitude": 34.3878,
    "longitude": 136.0142,
    "altitude_m": 0,
    "country": "Asia",
    "telescope_type": "optical"
  },
  {
    "code": "379",
    "name": "3  Hamamatsu-Yuto",
    "latitude": 34.5221,
    "longitude": 137.6279,
    "altitude_m": 0,
    "country": "Asia",
    "telescope_type": "optical"
  },
  {
    "code": "380",
    "name": "2  Ishiki",
    "latitude": 34.6335,
    "longitude": 137.0349,
    "altitude_m": 0,
    "country": "Asia",
    "telescope_type": "optical"
  },
  {
    "code": "382",
    "name": "9  Tokyo-Norikura",
    "latitude": 35.9266,
    "longitude": 137.5553,
    "altitude_m": 0,
    "country": "Asia",
    "telescope_type": "optical"
  },
  {
    "code": "383",
    "name": "6  Chirorin",
    "latitude": 36.5746,
    "longitude": 137.8959,
    "altitude_m": 0,
    "country": "Asia",
    "telescope_type": "optical"
  },
  {
    "code": "384",
    "name": "Shimada",
    "latitude": 34.6382,
    "longitude": 138.1792,
    "altitude_m": 0,
    "country": "Asia",
    "telescope_type": "optical"
  },
  {
    "code": "385",
    "name": "7  Nihondaira Observatory",
    "latitude": 34.7865,
    "longitude": 138.468,
    "altitude_m": 0,
    "country": "Asia",
    "telescope_type": "optical"
  },
  {
    "code": "388",
    "name": "1  Tokyo-Mitaka",
    "latitude": 35.4897,
    "longitude": 139.5421,
    "altitude_m": 0,
    "country": "Asia",
    "telescope_type": "optical"
  },
  {
    "code": "389",
    "name": "5  Tokyo (before 1938)",
    "latitude": 35.47,
    "longitude": 139.7447,
    "altitude_m": 0,
    "country": "Asia",
    "telescope_type": "optical"
  },
  {
    "code": "392",
    "name": "1  JCPM Sapporo Station",
    "latitude": 42.7211,
    "longitude": 141.3667,
    "altitude_m": 0,
    "country": "Asia",
    "telescope_type": "optical"
  },
  {
    "code": "393",
    "name": "JCPM Sakura Station",
    "latitude": 35.9084,
    "longitude": 140.1292,
    "altitude_m": 0,
    "country": "Asia",
    "telescope_type": "optical"
  },
  {
    "code": "394",
    "name": "3  JCPM Hamatonbetsu Station",
    "latitude": 44.918,
    "longitude": 142.3208,
    "altitude_m": 0,
    "country": "Asia",
    "telescope_type": "optical"
  },
  {
    "code": "395",
    "name": "Tokyo-Asahikawa",
    "latitude": 43.6485,
    "longitude": 142.3583,
    "altitude_m": 0,
    "country": "Asia",
    "telescope_type": "optical"
  },
  {
    "code": "396",
    "name": "Asahikawa",
    "latitude": 43.5512,
    "longitude": 142.4208,
    "altitude_m": 0,
    "country": "Asia",
    "telescope_type": "optical"
  },
  {
    "code": "397",
    "name": "2  Sapporo Science Center",
    "latitude": 42.8408,
    "longitude": 141.4761,
    "altitude_m": 0,
    "country": "Asia",
    "telescope_type": "optical"
  },
  {
    "code": "398",
    "name": "0  Nagatoro",
    "latitude": 35.9418,
    "longitude": 139.108,
    "altitude_m": 0,
    "country": "Asia",
    "telescope_type": "optical"
  },
  {
    "code": "399",
    "name": "0  Kushiro",
    "latitude": 42.8863,
    "longitude": 144.59,
    "altitude_m": 0,
    "country": "Asia",
    "telescope_type": "optical"
  },
  {
    "code": "400",
    "name": "1  Kitami",
    "latitude": 43.5658,
    "longitude": 143.7827,
    "altitude_m": 0,
    "country": "Asia",
    "telescope_type": "optical"
  },
  {
    "code": "401",
    "name": "Oosato",
    "latitude": 35.9291,
    "longitude": 139.4208,
    "altitude_m": 0,
    "country": "Asia",
    "telescope_type": "optical"
  },
  {
    "code": "402",
    "name": "5  Dynic Astronomical Observatory",
    "latitude": 35.0249,
    "longitude": 136.3078,
    "altitude_m": 0,
    "country": "Asia",
    "telescope_type": "optical"
  },
  {
    "code": "403",
    "name": "5  Kani",
    "latitude": 35.2293,
    "longitude": 137.0556,
    "altitude_m": 0,
    "country": "Asia",
    "telescope_type": "optical"
  },
  {
    "code": "404",
    "name": "Yamamoto",
    "latitude": 37.6375,
    "longitude": 140.9292,
    "altitude_m": 0,
    "country": "Asia",
    "telescope_type": "optical"
  },
  {
    "code": "405",
    "name": "Kamihoriguchi",
    "latitude": 36.1138,
    "longitude": 139.3292,
    "altitude_m": 0,
    "country": "Asia",
    "telescope_type": "optical"
  },
  {
    "code": "406",
    "name": "4  Bibai",
    "latitude": 43.0616,
    "longitude": 141.8233,
    "altitude_m": 0,
    "country": "Asia",
    "telescope_type": "optical"
  },
  {
    "code": "407",
    "name": "7  Kahoku",
    "latitude": 38.2518,
    "longitude": 140.3099,
    "altitude_m": 0,
    "country": "Asia",
    "telescope_type": "optical"
  },
  {
    "code": "408",
    "name": "8  Nyukasa",
    "latitude": 35.7133,
    "longitude": 138.1747,
    "altitude_m": 0,
    "country": "Asia",
    "telescope_type": "optical"
  },
  {
    "code": "409",
    "name": "4  Kiyose and Mizuho",
    "latitude": 35.5824,
    "longitude": 139.5211,
    "altitude_m": 0,
    "country": "Asia",
    "telescope_type": "optical"
  },
  {
    "code": "410",
    "name": "2  Sengamine",
    "latitude": 34.9459,
    "longitude": 134.891,
    "altitude_m": 0,
    "country": "Asia",
    "telescope_type": "optical"
  },
  {
    "code": "411",
    "name": "5  Oizumi",
    "latitude": 36.0648,
    "longitude": 139.417,
    "altitude_m": 0,
    "country": "Asia",
    "telescope_type": "optical"
  },
  {
    "code": "412",
    "name": "3  Iwaki",
    "latitude": 36.7743,
    "longitude": 140.5991,
    "altitude_m": 0,
    "country": "Asia",
    "telescope_type": "optical"
  },
  {
    "code": "414",
    "name": "9  Mount Stromlo",
    "latitude": -35.135,
    "longitude": 149.0077,
    "altitude_m": 0,
    "country": "Australia",
    "telescope_type": "optical"
  },
  {
    "code": "415",
    "name": "6  Kambah",
    "latitude": -35.2126,
    "longitude": 149.0636,
    "altitude_m": 0,
    "country": "Australia",
    "telescope_type": "optical"
  },
  {
    "code": "416",
    "name": "5  Barton",
    "latitude": -35.128,
    "longitude": 149.1336,
    "altitude_m": 0,
    "country": "Australia",
    "telescope_type": "optical"
  },
  {
    "code": "417",
    "name": "7  Yanagida Astronomical Observatory",
    "latitude": 37.1461,
    "longitude": 137.1371,
    "altitude_m": 0,
    "country": "Asia",
    "telescope_type": "optical"
  },
  {
    "code": "419",
    "name": "8  Windsor",
    "latitude": -33.4276,
    "longitude": 150.8329,
    "altitude_m": 0,
    "country": "Australia",
    "telescope_type": "optical"
  },
  {
    "code": "420",
    "name": "4  Sydney",
    "latitude": -33.6818,
    "longitude": 151.205,
    "altitude_m": 0,
    "country": "Australia",
    "telescope_type": "optical"
  },
  {
    "code": "421",
    "name": "2  Mt. Kajigamori, Otoyo",
    "latitude": 33.5775,
    "longitude": 133.765,
    "altitude_m": 0,
    "country": "Asia",
    "telescope_type": "optical"
  },
  {
    "code": "422",
    "name": "9  Loomberah",
    "latitude": -31.1596,
    "longitude": 151.0461,
    "altitude_m": 0,
    "country": "Australia",
    "telescope_type": "optical"
  },
  {
    "code": "424",
    "name": "5  Macquarie",
    "latitude": -35.0716,
    "longitude": 149.0658,
    "altitude_m": 0,
    "country": "Australia",
    "telescope_type": "optical"
  },
  {
    "code": "425",
    "name": "3  Taylor Range Observatory, Brisbane",
    "latitude": -27.3046,
    "longitude": 152.9316,
    "altitude_m": 0,
    "country": "Australia",
    "telescope_type": "optical"
  },
  {
    "code": "426",
    "name": "8  Woomera",
    "latitude": -31.0224,
    "longitude": 136.8217,
    "altitude_m": 0,
    "country": "Australia",
    "telescope_type": "optical"
  },
  {
    "code": "427",
    "name": "4  Stockport",
    "latitude": -34.1524,
    "longitude": 138.7283,
    "altitude_m": 0,
    "country": "Australia",
    "telescope_type": "optical"
  },
  {
    "code": "428",
    "name": "7  Reedy Creek",
    "latitude": -27.9471,
    "longitude": 153.397,
    "altitude_m": 0,
    "country": "Australia",
    "telescope_type": "optical"
  },
  {
    "code": "430",
    "name": "3  Rainbow Observatory, near Coonabarabran",
    "latitude": -31.1064,
    "longitude": 149.2123,
    "altitude_m": 0,
    "country": "Australia",
    "telescope_type": "optical"
  },
  {
    "code": "431",
    "name": "3  Mt. Tarana Observatory, Bathurst",
    "latitude": -33.2565,
    "longitude": 149.7578,
    "altitude_m": 0,
    "country": "Australia",
    "telescope_type": "optical"
  },
  {
    "code": "433",
    "name": "1  Bagnall Beach Observatory",
    "latitude": -32.5632,
    "longitude": 152.1078,
    "altitude_m": 0,
    "country": "Australia",
    "telescope_type": "optical"
  },
  {
    "code": "434",
    "name": "9  S. Benedetto Po",
    "latitude": 44.8559,
    "longitude": 10.9206,
    "altitude_m": 0,
    "country": "Europe",
    "telescope_type": "optical"
  },
  {
    "code": "436",
    "name": "8  Osservatorio di Livergnano",
    "latitude": 44.1324,
    "longitude": 11.3356,
    "altitude_m": 0,
    "country": "Europe",
    "telescope_type": "optical"
  },
  {
    "code": "437",
    "name": "3  Haverford",
    "latitude": 39.8203,
    "longitude": -75.3029,
    "altitude_m": 0,
    "country": "USA",
    "telescope_type": "optical"
  },
  {
    "code": "438",
    "name": "8  Smith College Observatory, Northampton",
    "latitude": 42.1224,
    "longitude": -72.6379,
    "altitude_m": 0,
    "country": "USA",
    "telescope_type": "optical"
  },
  {
    "code": "439",
    "name": "8  ROTSE-III, Los Alamos",
    "latitude": 35.683,
    "longitude": -106.7461,
    "altitude_m": 0,
    "country": "USA",
    "telescope_type": "optical"
  },
  {
    "code": "440",
    "name": "7  Elginfield Observatory",
    "latitude": 42.9971,
    "longitude": -81.3158,
    "altitude_m": 0,
    "country": "USA",
    "telescope_type": "optical"
  },
  {
    "code": "441",
    "name": "7  Swilken Brae, St. Andrews",
    "latitude": 56.1575,
    "longitude": -2.8303,
    "altitude_m": 0,
    "country": "Europe",
    "telescope_type": "optical"
  },
  {
    "code": "442",
    "name": "Gualba Observatory",
    "latitude": 41.5168,
    "longitude": -2.5178,
    "altitude_m": 0,
    "country": "Europe",
    "telescope_type": "optical"
  },
  {
    "code": "443",
    "name": "3  Obs. Astronomico Plomer, Buenos Aires",
    "latitude": -34.4521,
    "longitude": -58.5344,
    "altitude_m": 0,
    "country": "Argentina",
    "telescope_type": "optical"
  },
  {
    "code": "444",
    "name": "8  Star Cruiser Observatory",
    "latitude": 33.3029,
    "longitude": -116.7206,
    "altitude_m": 0,
    "country": "USA",
    "telescope_type": "optical"
  },
  {
    "code": "445",
    "name": "Observatorio d'Ontinyent",
    "latitude": 38.6302,
    "longitude": -0.58,
    "altitude_m": 0,
    "country": "Europe",
    "telescope_type": "optical"
  },
  {
    "code": "446",
    "name": "8  Kingsnake Observatory, Seguin",
    "latitude": 29.4002,
    "longitude": -97.8334,
    "altitude_m": 0,
    "country": "USA",
    "telescope_type": "optical"
  },
  {
    "code": "447",
    "name": "8  Centennial Observatory",
    "latitude": 39.4288,
    "longitude": -104.7944,
    "altitude_m": 0,
    "country": "USA",
    "telescope_type": "optical"
  },
  {
    "code": "448",
    "name": "8  Desert Moon Observatory, Las Cruces",
    "latitude": 32.2099,
    "longitude": -106.7199,
    "altitude_m": 0,
    "country": "USA",
    "telescope_type": "optical"
  },
  {
    "code": "449",
    "name": "6  Griffin Hunter Observatory, Bethune",
    "latitude": 34.2017,
    "longitude": -80.3497,
    "altitude_m": 0,
    "country": "USA",
    "telescope_type": "optical"
  },
  {
    "code": "450",
    "name": "4  Carla Jane Observatory, Charlotte",
    "latitude": 34.9686,
    "longitude": -80.6661,
    "altitude_m": 0,
    "country": "USA",
    "telescope_type": "optical"
  },
  {
    "code": "451",
    "name": "6  West Skies Observatory, Mulvane",
    "latitude": 37.3035,
    "longitude": -97.2431,
    "altitude_m": 0,
    "country": "USA",
    "telescope_type": "optical"
  },
  {
    "code": "452",
    "name": "Big Cypress Observatory, Fort Lauderdale",
    "latitude": 26.0266,
    "longitude": -80.8937,
    "altitude_m": 0,
    "country": "USA",
    "telescope_type": "optical"
  },
  {
    "code": "453",
    "name": "1  Edwards Raven Observatory",
    "latitude": 34.8036,
    "longitude": -117.8669,
    "altitude_m": 0,
    "country": "USA",
    "telescope_type": "optical"
  },
  {
    "code": "455",
    "name": "8  CBA Concord",
    "latitude": 37.7998,
    "longitude": -122.0364,
    "altitude_m": 0,
    "country": "USA",
    "telescope_type": "optical"
  },
  {
    "code": "456",
    "name": "9  Daventry Observatory",
    "latitude": 52.063,
    "longitude": -1.1722,
    "altitude_m": 0,
    "country": "Europe",
    "telescope_type": "optical"
  },
  {
    "code": "457",
    "name": "5  Partizanske",
    "latitude": 48.4356,
    "longitude": 18.3403,
    "altitude_m": 0,
    "country": "Europe",
    "telescope_type": "optical"
  },
  {
    "code": "458",
    "name": "5  Guadarrama Observatory",
    "latitude": 40.4549,
    "longitude": -4.0194,
    "altitude_m": 0,
    "country": "Europe",
    "telescope_type": "optical"
  },
  {
    "code": "459",
    "name": "8  Smith River Observatory, Danbury",
    "latitude": 43.3454,
    "longitude": -71.8828,
    "altitude_m": 0,
    "country": "USA",
    "telescope_type": "optical"
  },
  {
    "code": "460",
    "name": "9  Area 52 Observatory, Nashville",
    "latitude": 33.7998,
    "longitude": -94.0019,
    "altitude_m": 0,
    "country": "USA",
    "telescope_type": "optical"
  },
  {
    "code": "462",
    "name": "8  Mount Belleview Observatory",
    "latitude": 38.7297,
    "longitude": -76.9158,
    "altitude_m": 0,
    "country": "USA",
    "telescope_type": "optical"
  },
  {
    "code": "463",
    "name": "9  Sommers-Bausch Observatory, Boulder",
    "latitude": 39.8107,
    "longitude": -105.2625,
    "altitude_m": 0,
    "country": "USA",
    "telescope_type": "optical"
  },
  {
    "code": "464",
    "name": "9  Toby Point Observatory, Narragansett",
    "latitude": 41.216,
    "longitude": -71.4987,
    "altitude_m": 0,
    "country": "USA",
    "telescope_type": "optical"
  },
  {
    "code": "465",
    "name": "8  Takapuna",
    "latitude": -36.6154,
    "longitude": 174.7801,
    "altitude_m": 0,
    "country": "New Zealand",
    "telescope_type": "optical"
  },
  {
    "code": "466",
    "name": "Mount Molehill Observatory, Auckland",
    "latitude": -36.7575,
    "longitude": 174.8487,
    "altitude_m": 0,
    "country": "New Zealand",
    "telescope_type": "optical"
  },
  {
    "code": "467",
    "name": "4  Auckland Observatory",
    "latitude": -36.7214,
    "longitude": 174.7766,
    "altitude_m": 0,
    "country": "New Zealand",
    "telescope_type": "optical"
  },
  {
    "code": "468",
    "name": "9  Astronomical Observatory, Campo Catino",
    "latitude": 41.6261,
    "longitude": 13.3296,
    "altitude_m": 0,
    "country": "Europe",
    "telescope_type": "optical"
  },
  {
    "code": "471",
    "name": "5  Houstrup",
    "latitude": 55.6008,
    "longitude": 8.2389,
    "altitude_m": 0,
    "country": "Europe",
    "telescope_type": "optical"
  },
  {
    "code": "472",
    "name": "8  Merlette",
    "latitude": 44.4989,
    "longitude": 6.3203,
    "altitude_m": 0,
    "country": "Europe",
    "telescope_type": "optical"
  },
  {
    "code": "475",
    "name": "3  Turin (before 1913)",
    "latitude": 44.8754,
    "longitude": 7.6965,
    "altitude_m": 0,
    "country": "Europe",
    "telescope_type": "optical"
  },
  {
    "code": "477",
    "name": "7  Galleywood",
    "latitude": 51.5128,
    "longitude": 0.4856,
    "altitude_m": 0,
    "country": "Europe",
    "telescope_type": "optical"
  },
  {
    "code": "478",
    "name": "7  Lamalou-les-Bains",
    "latitude": 43.3936,
    "longitude": 3.0896,
    "altitude_m": 0,
    "country": "Europe",
    "telescope_type": "optical"
  },
  {
    "code": "479",
    "name": "6  Sollies-Pont",
    "latitude": 42.9991,
    "longitude": 6.0505,
    "altitude_m": 0,
    "country": "Europe",
    "telescope_type": "optical"
  },
  {
    "code": "480",
    "name": "6  Cockfield",
    "latitude": 51.9778,
    "longitude": 0.7733,
    "altitude_m": 0,
    "country": "Europe",
    "telescope_type": "optical"
  },
  {
    "code": "483",
    "name": "4  Carter Observatory, Black Birch Station",
    "latitude": -41.5563,
    "longitude": 173.8036,
    "altitude_m": 0,
    "country": "New Zealand",
    "telescope_type": "optical"
  },
  {
    "code": "484",
    "name": "6  Happy Valley, Wellington",
    "latitude": -41.1461,
    "longitude": 174.7594,
    "altitude_m": 0,
    "country": "New Zealand",
    "telescope_type": "optical"
  },
  {
    "code": "485",
    "name": "5  Carter Observatory, Wellington",
    "latitude": -41.0914,
    "longitude": 174.7654,
    "altitude_m": 0,
    "country": "New Zealand",
    "telescope_type": "optical"
  },
  {
    "code": "486",
    "name": "Palmerston North",
    "latitude": -40.0478,
    "longitude": 175.47,
    "altitude_m": 0,
    "country": "New Zealand",
    "telescope_type": "optical"
  },
  {
    "code": "487",
    "name": "9  Macnairston Observatory",
    "latitude": 55.2564,
    "longitude": -4.5556,
    "altitude_m": 0,
    "country": "Europe",
    "telescope_type": "optical"
  },
  {
    "code": "488",
    "name": "3  Newcastle-upon-Tyne",
    "latitude": 54.8193,
    "longitude": -1.6336,
    "altitude_m": 0,
    "country": "Europe",
    "telescope_type": "optical"
  },
  {
    "code": "489",
    "name": "Hemingford Abbots",
    "latitude": 52.1653,
    "longitude": -0.13,
    "altitude_m": 0,
    "country": "Europe",
    "telescope_type": "optical"
  },
  {
    "code": "490",
    "name": "Wimborne Minster",
    "latitude": 50.65,
    "longitude": -2.0,
    "altitude_m": 0,
    "country": "Europe",
    "telescope_type": "optical"
  },
  {
    "code": "491",
    "name": "4  Centro Astron\u00f3mico de Yebes",
    "latitude": 40.3333,
    "longitude": -3.1,
    "altitude_m": 0,
    "country": "Europe",
    "telescope_type": "optical"
  },
  {
    "code": "492",
    "name": "Mickleover",
    "latitude": 52.7286,
    "longitude": -1.53,
    "altitude_m": 0,
    "country": "Europe",
    "telescope_type": "optical"
  },
  {
    "code": "493",
    "name": "2  Calar Alto",
    "latitude": 37.0375,
    "longitude": -2.5458,
    "altitude_m": 0,
    "country": "Europe",
    "telescope_type": "optical"
  },
  {
    "code": "494",
    "name": "9  Stakenbridge",
    "latitude": 52.2235,
    "longitude": -2.1639,
    "altitude_m": 0,
    "country": "Europe",
    "telescope_type": "optical"
  },
  {
    "code": "496",
    "name": "Bishopstoke",
    "latitude": 50.7744,
    "longitude": -1.314,
    "altitude_m": 0,
    "country": "Europe",
    "telescope_type": "optical"
  },
  {
    "code": "498",
    "name": "8  Earls Barton",
    "latitude": 52.0728,
    "longitude": -0.7419,
    "altitude_m": 0,
    "country": "Europe",
    "telescope_type": "optical"
  },
  {
    "code": "501",
    "name": "8  Herstmonceux",
    "latitude": 50.678,
    "longitude": 0.3475,
    "altitude_m": 0,
    "country": "Europe",
    "telescope_type": "optical"
  },
  {
    "code": "503",
    "name": "7  Cambridge",
    "latitude": 52.0253,
    "longitude": 0.0948,
    "altitude_m": 0,
    "country": "Europe",
    "telescope_type": "optical"
  },
  {
    "code": "504",
    "name": "0  Le Creusot",
    "latitude": 46.6305,
    "longitude": 4.3944,
    "altitude_m": 0,
    "country": "Europe",
    "telescope_type": "optical"
  },
  {
    "code": "505",
    "name": "Simon Stevin",
    "latitude": 51.3787,
    "longitude": 4.5639,
    "altitude_m": 0,
    "country": "Europe",
    "telescope_type": "optical"
  },
  {
    "code": "506",
    "name": "Bendestorf",
    "latitude": 53.1186,
    "longitude": 9.96,
    "altitude_m": 0,
    "country": "Europe",
    "telescope_type": "optical"
  },
  {
    "code": "507",
    "name": "Nyenheim",
    "latitude": 51.7621,
    "longitude": 5.22,
    "altitude_m": 0,
    "country": "Europe",
    "telescope_type": "optical"
  },
  {
    "code": "508",
    "name": "Zeist",
    "latitude": 51.7621,
    "longitude": 5.29,
    "altitude_m": 0,
    "country": "Europe",
    "telescope_type": "optical"
  },
  {
    "code": "510",
    "name": "7  Siegen",
    "latitude": 50.7193,
    "longitude": 8.0256,
    "altitude_m": 0,
    "country": "Europe",
    "telescope_type": "optical"
  },
  {
    "code": "511",
    "name": "4  Haute Provence",
    "latitude": 43.738,
    "longitude": 5.7157,
    "altitude_m": 0,
    "country": "Europe",
    "telescope_type": "optical"
  },
  {
    "code": "512",
    "name": "6  Leiden (before 1860)",
    "latitude": 51.9693,
    "longitude": 4.4893,
    "altitude_m": 0,
    "country": "Europe",
    "telescope_type": "optical"
  },
  {
    "code": "513",
    "name": "9  Lyons",
    "latitude": 45.4988,
    "longitude": 4.7855,
    "altitude_m": 0,
    "country": "Europe",
    "telescope_type": "optical"
  },
  {
    "code": "514",
    "name": "Mundenheim (1907-1913)",
    "latitude": 49.2661,
    "longitude": 8.438,
    "altitude_m": 0,
    "country": "Europe",
    "telescope_type": "optical"
  },
  {
    "code": "515",
    "name": "8  Volkssternwarte Dhaun, near Kirn",
    "latitude": 49.6221,
    "longitude": 7.4956,
    "altitude_m": 0,
    "country": "Europe",
    "telescope_type": "optical"
  },
  {
    "code": "517",
    "name": "7  Geneva (from 1967)",
    "latitude": 46.1157,
    "longitude": 6.1358,
    "altitude_m": 0,
    "country": "Europe",
    "telescope_type": "optical"
  },
  {
    "code": "518",
    "name": "1  Marine Observatory, Hamburg",
    "latitude": 53.3632,
    "longitude": 9.9727,
    "altitude_m": 0,
    "country": "Europe",
    "telescope_type": "optical"
  },
  {
    "code": "519",
    "name": "9  Meschede",
    "latitude": 51.151,
    "longitude": 8.2867,
    "altitude_m": 0,
    "country": "Europe",
    "telescope_type": "optical"
  },
  {
    "code": "520",
    "name": "3  Bonn",
    "latitude": 50.539,
    "longitude": 7.0966,
    "altitude_m": 0,
    "country": "Europe",
    "telescope_type": "optical"
  },
  {
    "code": "522",
    "name": "3  Strasbourg",
    "latitude": 48.3917,
    "longitude": 7.7677,
    "altitude_m": 0,
    "country": "Europe",
    "telescope_type": "optical"
  },
  {
    "code": "523",
    "name": "4  Frankfurt",
    "latitude": 49.9257,
    "longitude": 8.6512,
    "altitude_m": 0,
    "country": "Europe",
    "telescope_type": "optical"
  },
  {
    "code": "526",
    "name": "6  Kiel",
    "latitude": 54.1565,
    "longitude": 10.1477,
    "altitude_m": 0,
    "country": "Europe",
    "telescope_type": "optical"
  },
  {
    "code": "528",
    "name": "1  G\u00f6ttingen",
    "latitude": 51.342,
    "longitude": 9.9426,
    "altitude_m": 0,
    "country": "Europe",
    "telescope_type": "optical"
  },
  {
    "code": "529",
    "name": "3  Christiania",
    "latitude": 59.7441,
    "longitude": 10.7229,
    "altitude_m": 0,
    "country": "Europe",
    "telescope_type": "optical"
  },
  {
    "code": "530",
    "name": "L\u00fcbeck",
    "latitude": 53.6733,
    "longitude": 10.6898,
    "altitude_m": 0,
    "country": "Europe",
    "telescope_type": "optical"
  },
  {
    "code": "531",
    "name": "4  Collegio Romano, Rome",
    "latitude": 41.7055,
    "longitude": 12.4797,
    "altitude_m": 0,
    "country": "Europe",
    "telescope_type": "optical"
  },
  {
    "code": "534",
    "name": "9  Leipzig (since 1861)",
    "latitude": 51.1438,
    "longitude": 12.3913,
    "altitude_m": 0,
    "country": "Europe",
    "telescope_type": "optical"
  },
  {
    "code": "535",
    "name": "6  Palermo",
    "latitude": 37.9226,
    "longitude": 13.3578,
    "altitude_m": 0,
    "country": "Europe",
    "telescope_type": "optical"
  },
  {
    "code": "536",
    "name": "3  Berlin-Babelsberg",
    "latitude": 52.2194,
    "longitude": 13.1062,
    "altitude_m": 0,
    "country": "Europe",
    "telescope_type": "optical"
  },
  {
    "code": "537",
    "name": "Urania Observatory, Berlin",
    "latitude": 52.34,
    "longitude": 13.3642,
    "altitude_m": 0,
    "country": "Europe",
    "telescope_type": "optical"
  },
  {
    "code": "538",
    "name": "7  Pola",
    "latitude": 44.668,
    "longitude": 13.8461,
    "altitude_m": 0,
    "country": "Europe",
    "telescope_type": "optical"
  },
  {
    "code": "539",
    "name": "4  Kremsm\u00fcnster",
    "latitude": 47.8635,
    "longitude": 14.1316,
    "altitude_m": 0,
    "country": "Europe",
    "telescope_type": "optical"
  },
  {
    "code": "540",
    "name": "7  Linz",
    "latitude": 48.2487,
    "longitude": 14.2753,
    "altitude_m": 0,
    "country": "Europe",
    "telescope_type": "optical"
  },
  {
    "code": "541",
    "name": "1  Prague",
    "latitude": 49.8868,
    "longitude": 14.3953,
    "altitude_m": 0,
    "country": "Europe",
    "telescope_type": "optical"
  },
  {
    "code": "542",
    "name": "Falkensee",
    "latitude": 52.3813,
    "longitude": 13.0374,
    "altitude_m": 0,
    "country": "Europe",
    "telescope_type": "optical"
  },
  {
    "code": "547",
    "name": "9  Breslau",
    "latitude": 50.9241,
    "longitude": 17.0363,
    "altitude_m": 0,
    "country": "Europe",
    "telescope_type": "optical"
  },
  {
    "code": "549",
    "name": "6  Uppsala",
    "latitude": 59.6889,
    "longitude": 17.6257,
    "altitude_m": 0,
    "country": "Europe",
    "telescope_type": "optical"
  },
  {
    "code": "550",
    "name": "Schwerin",
    "latitude": 53.4436,
    "longitude": 11.4196,
    "altitude_m": 0,
    "country": "Europe",
    "telescope_type": "optical"
  },
  {
    "code": "551",
    "name": "8  Hurbanovo",
    "latitude": 47.6795,
    "longitude": 18.1895,
    "altitude_m": 0,
    "country": "Europe",
    "telescope_type": "optical"
  },
  {
    "code": "553",
    "name": "4  Chorz\u00f3w",
    "latitude": 50.109,
    "longitude": 18.9938,
    "altitude_m": 0,
    "country": "Europe",
    "telescope_type": "optical"
  },
  {
    "code": "554",
    "name": "5  Burgsolms Observatory, Wetzlar",
    "latitude": 50.3485,
    "longitude": 8.3959,
    "altitude_m": 0,
    "country": "Europe",
    "telescope_type": "optical"
  },
  {
    "code": "555",
    "name": "6  Cracow-Fort Ska\u0142a",
    "latitude": 49.8625,
    "longitude": 19.8263,
    "altitude_m": 0,
    "country": "Europe",
    "telescope_type": "radio"
  },
  {
    "code": "556",
    "name": "Reintal, near Munich",
    "latitude": 47.3978,
    "longitude": 11.26,
    "altitude_m": 0,
    "country": "Europe",
    "telescope_type": "optical"
  },
  {
    "code": "558",
    "name": "2  Warsaw",
    "latitude": 52.0306,
    "longitude": 21.0303,
    "altitude_m": 0,
    "country": "Europe",
    "telescope_type": "optical"
  },
  {
    "code": "559",
    "name": "Serra La Nave",
    "latitude": 37.4322,
    "longitude": 14.98,
    "altitude_m": 0,
    "country": "Europe",
    "telescope_type": "optical"
  },
  {
    "code": "562",
    "name": "2  Figl Observatory, Vienna",
    "latitude": 47.8916,
    "longitude": 15.9236,
    "altitude_m": 0,
    "country": "Europe",
    "telescope_type": "optical"
  },
  {
    "code": "563",
    "name": "Seewalchen",
    "latitude": 47.7611,
    "longitude": 13.6,
    "altitude_m": 0,
    "country": "Europe",
    "telescope_type": "optical"
  },
  {
    "code": "564",
    "name": "Herrsching",
    "latitude": 47.8381,
    "longitude": 11.19,
    "altitude_m": 0,
    "country": "Europe",
    "telescope_type": "optical"
  },
  {
    "code": "565",
    "name": "6  Bassano Bresciano",
    "latitude": 45.123,
    "longitude": 10.1344,
    "altitude_m": 0,
    "country": "Europe",
    "telescope_type": "optical"
  },
  {
    "code": "566",
    "name": "6  Haleakala-NEAT/GEODSS",
    "latitude": 20.5782,
    "longitude": -156.2576,
    "altitude_m": 0,
    "country": "Hawaii, USA",
    "telescope_type": "optical"
  },
  {
    "code": "567",
    "name": "7  Chions",
    "latitude": 45.6482,
    "longitude": 12.7117,
    "altitude_m": 0,
    "country": "Europe",
    "telescope_type": "optical"
  },
  {
    "code": "568",
    "name": "5  Maunakea",
    "latitude": 19.701,
    "longitude": -155.4722,
    "altitude_m": 0,
    "country": "Hawaii, USA",
    "telescope_type": "optical"
  },
  {
    "code": "569",
    "name": "5  Helsinki",
    "latitude": 59.9874,
    "longitude": 24.9587,
    "altitude_m": 0,
    "country": "Europe",
    "telescope_type": "optical"
  },
  {
    "code": "571",
    "name": "Cavriana",
    "latitude": 45.1623,
    "longitude": 10.63,
    "altitude_m": 0,
    "country": "Europe",
    "telescope_type": "optical"
  },
  {
    "code": "572",
    "name": "Cologne",
    "latitude": 50.7389,
    "longitude": 6.89,
    "altitude_m": 0,
    "country": "Europe",
    "telescope_type": "optical"
  },
  {
    "code": "573",
    "name": "Eldagsen",
    "latitude": 51.9885,
    "longitude": 9.6612,
    "altitude_m": 0,
    "country": "Europe",
    "telescope_type": "optical"
  },
  {
    "code": "574",
    "name": "1  Gottolengo",
    "latitude": 45.1043,
    "longitude": 10.2667,
    "altitude_m": 0,
    "country": "Europe",
    "telescope_type": "optical"
  },
  {
    "code": "575",
    "name": "4  La Chaux de Fonds",
    "latitude": 46.8959,
    "longitude": 6.808,
    "altitude_m": 0,
    "country": "Europe",
    "telescope_type": "optical"
  },
  {
    "code": "576",
    "name": "6  Burwash",
    "latitude": 50.8044,
    "longitude": 0.376,
    "altitude_m": 0,
    "country": "Europe",
    "telescope_type": "optical"
  },
  {
    "code": "577",
    "name": "Metzerlen Observatory",
    "latitude": 47.2712,
    "longitude": 7.5,
    "altitude_m": 0,
    "country": "Europe",
    "telescope_type": "optical"
  },
  {
    "code": "579",
    "name": "Novi Ligure",
    "latitude": 44.5942,
    "longitude": 8.85,
    "altitude_m": 0,
    "country": "Europe",
    "telescope_type": "optical"
  },
  {
    "code": "580",
    "name": "2  Graz",
    "latitude": 46.8745,
    "longitude": 15.4936,
    "altitude_m": 0,
    "country": "Europe",
    "telescope_type": "optical"
  },
  {
    "code": "581",
    "name": "Sedgefield",
    "latitude": -33.8173,
    "longitude": 22.8,
    "altitude_m": 0,
    "country": "Unknown",
    "telescope_type": "optical"
  },
  {
    "code": "582",
    "name": "7  Orwell Park",
    "latitude": 51.8199,
    "longitude": 1.2408,
    "altitude_m": 0,
    "country": "Europe",
    "telescope_type": "optical"
  },
  {
    "code": "583",
    "name": "6  Odesa-Mayaky",
    "latitude": 46.2027,
    "longitude": 30.2717,
    "altitude_m": 0,
    "country": "Europe",
    "telescope_type": "optical"
  },
  {
    "code": "584",
    "name": "9  Leningrad",
    "latitude": 59.7727,
    "longitude": 30.2946,
    "altitude_m": 0,
    "country": "Europe",
    "telescope_type": "optical"
  },
  {
    "code": "586",
    "name": "9  Pic du Midi",
    "latitude": 42.741,
    "longitude": 0.1423,
    "altitude_m": 0,
    "country": "Europe",
    "telescope_type": "optical"
  },
  {
    "code": "591",
    "name": "9  Resse Observatory",
    "latitude": 52.3182,
    "longitude": 9.6258,
    "altitude_m": 0,
    "country": "Europe",
    "telescope_type": "optical"
  },
  {
    "code": "593",
    "name": "Monte Argentario",
    "latitude": 42.2389,
    "longitude": 11.17,
    "altitude_m": 0,
    "country": "Europe",
    "telescope_type": "optical"
  },
  {
    "code": "594",
    "name": "9  Monte Autore",
    "latitude": 41.7624,
    "longitude": 13.2033,
    "altitude_m": 0,
    "country": "Europe",
    "telescope_type": "optical"
  },
  {
    "code": "596",
    "name": "5  Colleverde di Guidonia",
    "latitude": 41.7904,
    "longitude": 12.6183,
    "altitude_m": 0,
    "country": "Europe",
    "telescope_type": "optical"
  },
  {
    "code": "600",
    "name": "4  TLC Observatory, Bologna",
    "latitude": 44.1648,
    "longitude": 11.4708,
    "altitude_m": 0,
    "country": "Europe",
    "telescope_type": "optical"
  },
  {
    "code": "603",
    "name": "5  Bothkamp",
    "latitude": 54.0181,
    "longitude": 10.13,
    "altitude_m": 0,
    "country": "Europe",
    "telescope_type": "optical"
  },
  {
    "code": "605",
    "name": "6  Marl",
    "latitude": 51.4846,
    "longitude": 7.113,
    "altitude_m": 0,
    "country": "Europe",
    "telescope_type": "optical"
  },
  {
    "code": "606",
    "name": "2  Norderstedt",
    "latitude": 53.4997,
    "longitude": 9.9956,
    "altitude_m": 0,
    "country": "Europe",
    "telescope_type": "optical"
  },
  {
    "code": "607",
    "name": "Hagen Observatory, Ronkhausen",
    "latitude": 51.0309,
    "longitude": 8.0,
    "altitude_m": 0,
    "country": "Europe",
    "telescope_type": "optical"
  },
  {
    "code": "609",
    "name": "4  Osservatorio Polino",
    "latitude": 42.3775,
    "longitude": 12.8533,
    "altitude_m": 0,
    "country": "Europe",
    "telescope_type": "optical"
  },
  {
    "code": "610",
    "name": "4  Pianoro",
    "latitude": 44.1977,
    "longitude": 11.3431,
    "altitude_m": 0,
    "country": "Europe",
    "telescope_type": "optical"
  },
  {
    "code": "611",
    "name": "8  Starkenburg Sternwarte, Heppenheim",
    "latitude": 49.4548,
    "longitude": 8.6531,
    "altitude_m": 0,
    "country": "Europe",
    "telescope_type": "optical"
  },
  {
    "code": "612",
    "name": "Lenkerbeck",
    "latitude": 51.2236,
    "longitude": 7.1,
    "altitude_m": 0,
    "country": "Europe",
    "telescope_type": "optical"
  },
  {
    "code": "614",
    "name": "Soisy-sur-Seine",
    "latitude": 48.4442,
    "longitude": 2.467,
    "altitude_m": 0,
    "country": "Europe",
    "telescope_type": "optical"
  },
  {
    "code": "615",
    "name": "4  St. V\u00e9ran",
    "latitude": 44.5039,
    "longitude": 6.9067,
    "altitude_m": 0,
    "country": "Europe",
    "telescope_type": "optical"
  },
  {
    "code": "617",
    "name": "7  Arbonne la For\u00eat",
    "latitude": 48.2223,
    "longitude": 2.5725,
    "altitude_m": 0,
    "country": "Europe",
    "telescope_type": "optical"
  },
  {
    "code": "618",
    "name": "2  Martigues",
    "latitude": 43.2264,
    "longitude": 5.0077,
    "altitude_m": 0,
    "country": "Europe",
    "telescope_type": "optical"
  },
  {
    "code": "620",
    "name": "3  Observatorio Astron\u00f3mico de Mallorca",
    "latitude": 39.4537,
    "longitude": 2.9517,
    "altitude_m": 0,
    "country": "Europe",
    "telescope_type": "optical"
  },
  {
    "code": "622",
    "name": "8  Oberwichtrach",
    "latitude": 46.4499,
    "longitude": 7.568,
    "altitude_m": 0,
    "country": "Europe",
    "telescope_type": "optical"
  },
  {
    "code": "623",
    "name": "2  Li\u00e8ge",
    "latitude": 50.4288,
    "longitude": 5.5667,
    "altitude_m": 0,
    "country": "Europe",
    "telescope_type": "optical"
  },
  {
    "code": "624",
    "name": "7  Dertingen",
    "latitude": 49.5705,
    "longitude": 9.6167,
    "altitude_m": 0,
    "country": "Europe",
    "telescope_type": "optical"
  },
  {
    "code": "625",
    "name": "1  Kihei-AMOS Remote Maui Experimental Site",
    "latitude": 20.6184,
    "longitude": -156.4317,
    "altitude_m": 0,
    "country": "Hawaii, USA",
    "telescope_type": "optical"
  },
  {
    "code": "626",
    "name": "4  Geel",
    "latitude": 50.9676,
    "longitude": 4.9864,
    "altitude_m": 0,
    "country": "Europe",
    "telescope_type": "optical"
  },
  {
    "code": "627",
    "name": "8  Blauvac",
    "latitude": 43.8466,
    "longitude": 5.2146,
    "altitude_m": 0,
    "country": "Europe",
    "telescope_type": "optical"
  },
  {
    "code": "629",
    "name": "0  Szeged Observatory",
    "latitude": 46.0581,
    "longitude": 20.1511,
    "altitude_m": 0,
    "country": "Europe",
    "telescope_type": "optical"
  },
  {
    "code": "630",
    "name": "1  Osenbach",
    "latitude": 47.8012,
    "longitude": 7.2367,
    "altitude_m": 0,
    "country": "Europe",
    "telescope_type": "optical"
  },
  {
    "code": "633",
    "name": "8  Romito",
    "latitude": 43.9042,
    "longitude": 9.9339,
    "altitude_m": 0,
    "country": "Europe",
    "telescope_type": "optical"
  },
  {
    "code": "634",
    "name": "7  Crolles",
    "latitude": 45.332,
    "longitude": 5.1456,
    "altitude_m": 0,
    "country": "Europe",
    "telescope_type": "optical"
  },
  {
    "code": "635",
    "name": "7  Pergignan",
    "latitude": 42.5057,
    "longitude": 2.9019,
    "altitude_m": 0,
    "country": "Europe",
    "telescope_type": "optical"
  },
  {
    "code": "636",
    "name": "3  Essen",
    "latitude": 51.2057,
    "longitude": 6.9794,
    "altitude_m": 0,
    "country": "Europe",
    "telescope_type": "optical"
  },
  {
    "code": "637",
    "name": "2  Hamburg-Himmelsmoor",
    "latitude": 53.519,
    "longitude": 10.0903,
    "altitude_m": 0,
    "country": "Europe",
    "telescope_type": "optical"
  },
  {
    "code": "638",
    "name": "4  Detmold",
    "latitude": 51.7518,
    "longitude": 8.8933,
    "altitude_m": 0,
    "country": "Europe",
    "telescope_type": "optical"
  },
  {
    "code": "639",
    "name": "6  Dresden",
    "latitude": 50.904,
    "longitude": 13.7233,
    "altitude_m": 0,
    "country": "Europe",
    "telescope_type": "optical"
  },
  {
    "code": "640",
    "name": "Senftenberger Sternwarte",
    "latitude": 49.8975,
    "longitude": 13.5996,
    "altitude_m": 0,
    "country": "Europe",
    "telescope_type": "optical"
  },
  {
    "code": "641",
    "name": "4  Overberg",
    "latitude": -34.3541,
    "longitude": 20.0272,
    "altitude_m": 0,
    "country": "Unknown",
    "telescope_type": "optical"
  },
  {
    "code": "642",
    "name": "Oak Bay, Victoria",
    "latitude": 48.2368,
    "longitude": -123.315,
    "altitude_m": 0,
    "country": "USA",
    "telescope_type": "optical"
  },
  {
    "code": "646",
    "name": "3  Santana Observatory, Rancho Cucamonga",
    "latitude": 33.8176,
    "longitude": -117.5631,
    "altitude_m": 0,
    "country": "USA",
    "telescope_type": "optical"
  },
  {
    "code": "647",
    "name": "Stone Finder Observatory, Calgary",
    "latitude": 50.5898,
    "longitude": -114.0317,
    "altitude_m": 0,
    "country": "Canada",
    "telescope_type": "optical"
  },
  {
    "code": "649",
    "name": "7  Powell Observatory, Louisburg",
    "latitude": 38.4557,
    "longitude": -94.6997,
    "altitude_m": 0,
    "country": "USA",
    "telescope_type": "optical"
  },
  {
    "code": "650",
    "name": "6  Temecula",
    "latitude": 33.2876,
    "longitude": -117.0972,
    "altitude_m": 0,
    "country": "USA",
    "telescope_type": "optical"
  },
  {
    "code": "652",
    "name": "Rock Finder Observatory, Calgary",
    "latitude": 50.9287,
    "longitude": -114.0667,
    "altitude_m": 0,
    "country": "Canada",
    "telescope_type": "optical"
  },
  {
    "code": "653",
    "name": "6  Torus Observatory, Buckley",
    "latitude": 46.9888,
    "longitude": -122.1322,
    "altitude_m": 0,
    "country": "USA",
    "telescope_type": "optical"
  },
  {
    "code": "655",
    "name": "Sooke",
    "latitude": 48.1758,
    "longitude": -123.617,
    "altitude_m": 0,
    "country": "USA",
    "telescope_type": "optical"
  },
  {
    "code": "659",
    "name": "0  Heron Cove Observatory, Orcas",
    "latitude": 48.4087,
    "longitude": -122.9486,
    "altitude_m": 0,
    "country": "USA",
    "telescope_type": "optical"
  },
  {
    "code": "660",
    "name": "9  Leuschner Observatory, Berkeley",
    "latitude": 37.683,
    "longitude": -122.2621,
    "altitude_m": 0,
    "country": "USA",
    "telescope_type": "optical"
  },
  {
    "code": "661",
    "name": "2  Rothney Astrophysical Observatory, Priddis",
    "latitude": 50.6791,
    "longitude": -114.2883,
    "altitude_m": 0,
    "country": "Canada",
    "telescope_type": "optical"
  },
  {
    "code": "662",
    "name": "5  Lick Observatory, Mount Hamilton",
    "latitude": 37.1524,
    "longitude": -121.6455,
    "altitude_m": 0,
    "country": "USA",
    "telescope_type": "optical"
  },
  {
    "code": "663",
    "name": "9  Red Mountain Observatory",
    "latitude": 33.3153,
    "longitude": -111.6864,
    "altitude_m": 0,
    "country": "USA",
    "telescope_type": "optical"
  },
  {
    "code": "664",
    "name": "Manastash Ridge Observatory",
    "latitude": 46.7573,
    "longitude": -120.7225,
    "altitude_m": 0,
    "country": "USA",
    "telescope_type": "optical"
  },
  {
    "code": "665",
    "name": "1  Wallis Observatory",
    "latitude": 34.6301,
    "longitude": -119.0097,
    "altitude_m": 0,
    "country": "USA",
    "telescope_type": "optical"
  },
  {
    "code": "666",
    "name": "Moorpark College Observatory",
    "latitude": 34.1227,
    "longitude": -118.8308,
    "altitude_m": 0,
    "country": "USA",
    "telescope_type": "optical"
  },
  {
    "code": "668",
    "name": "San Emigdio Peak",
    "latitude": 34.677,
    "longitude": -119.18,
    "altitude_m": 0,
    "country": "USA",
    "telescope_type": "optical"
  },
  {
    "code": "669",
    "name": "9  Ojai",
    "latitude": 34.2834,
    "longitude": -119.1762,
    "altitude_m": 0,
    "country": "USA",
    "telescope_type": "optical"
  },
  {
    "code": "670",
    "name": "2  Camarillo",
    "latitude": 34.0416,
    "longitude": -119.0442,
    "altitude_m": 0,
    "country": "USA",
    "telescope_type": "optical"
  },
  {
    "code": "672",
    "name": "2  Mount Wilson",
    "latitude": 34.045,
    "longitude": -118.0564,
    "altitude_m": 0,
    "country": "USA",
    "telescope_type": "optical"
  },
  {
    "code": "676",
    "name": "2  San Clemente",
    "latitude": 33.2405,
    "longitude": -117.6093,
    "altitude_m": 0,
    "country": "USA",
    "telescope_type": "optical"
  },
  {
    "code": "677",
    "name": "2  Lake Arrowhead",
    "latitude": 34.0937,
    "longitude": -117.1719,
    "altitude_m": 0,
    "country": "USA",
    "telescope_type": "optical"
  },
  {
    "code": "678",
    "name": "3  Fountain Hills",
    "latitude": 33.4572,
    "longitude": -111.7403,
    "altitude_m": 0,
    "country": "USA",
    "telescope_type": "optical"
  },
  {
    "code": "679",
    "name": "2  San Pedro Martir",
    "latitude": 30.8727,
    "longitude": -115.4633,
    "altitude_m": 0,
    "country": "USA",
    "telescope_type": "optical"
  },
  {
    "code": "680",
    "name": "Los Angeles",
    "latitude": 33.6265,
    "longitude": -115.22,
    "altitude_m": 0,
    "country": "USA",
    "telescope_type": "optical"
  },
  {
    "code": "682",
    "name": "2  Kanab",
    "latitude": 36.8612,
    "longitude": -112.3619,
    "altitude_m": 0,
    "country": "USA",
    "telescope_type": "optical"
  },
  {
    "code": "683",
    "name": "2  Goodricke-Pigott Observatory, Tucson",
    "latitude": 31.9814,
    "longitude": -111.0818,
    "altitude_m": 0,
    "country": "USA",
    "telescope_type": "optical"
  },
  {
    "code": "684",
    "name": "6  Prescott",
    "latitude": 34.3304,
    "longitude": -112.49,
    "altitude_m": 0,
    "country": "USA",
    "telescope_type": "optical"
  },
  {
    "code": "685",
    "name": "Williams",
    "latitude": 35.1707,
    "longitude": -112.16,
    "altitude_m": 0,
    "country": "USA",
    "telescope_type": "optical"
  },
  {
    "code": "686",
    "name": "9  U. of Minn. Infrared Obs., Mt. Lemmon",
    "latitude": 32.263,
    "longitude": -110.7908,
    "altitude_m": 0,
    "country": "USA",
    "telescope_type": "infrared"
  },
  {
    "code": "687",
    "name": "8  Northern Arizona University, Flagstaff",
    "latitude": 34.9997,
    "longitude": -111.6527,
    "altitude_m": 0,
    "country": "USA",
    "telescope_type": "optical"
  },
  {
    "code": "688",
    "name": "3  Lowell Observatory, Anderson Mesa Station",
    "latitude": 34.9138,
    "longitude": -111.5355,
    "altitude_m": 0,
    "country": "USA",
    "telescope_type": "optical"
  },
  {
    "code": "689",
    "name": "9  U.S. Naval Observatory, Flagstaff",
    "latitude": 34.9987,
    "longitude": -111.7399,
    "altitude_m": 0,
    "country": "USA",
    "telescope_type": "optical"
  },
  {
    "code": "692",
    "name": "6  Steward Observatory, Tucson",
    "latitude": 32.0567,
    "longitude": -110.9487,
    "altitude_m": 0,
    "country": "USA",
    "telescope_type": "optical"
  },
  {
    "code": "694",
    "name": "9  Tumamoc Hill, Tucson",
    "latitude": 32.0358,
    "longitude": -111.0057,
    "altitude_m": 0,
    "country": "USA",
    "telescope_type": "optical"
  },
  {
    "code": "696",
    "name": "9  Whipple Observatory, Mt. Hopkins",
    "latitude": 31.5129,
    "longitude": -110.8846,
    "altitude_m": 0,
    "country": "USA",
    "telescope_type": "optical"
  },
  {
    "code": "700",
    "name": "0  Chinle",
    "latitude": 36.167,
    "longitude": -109.6183,
    "altitude_m": 0,
    "country": "USA",
    "telescope_type": "optical"
  },
  {
    "code": "702",
    "name": "Joint Obs. for cometary research, Socorro",
    "latitude": 33.8061,
    "longitude": -107.1883,
    "altitude_m": 0,
    "country": "USA",
    "telescope_type": "optical"
  },
  {
    "code": "706",
    "name": "3  Salida",
    "latitude": 38.3932,
    "longitude": -106.0634,
    "altitude_m": 0,
    "country": "USA",
    "telescope_type": "optical"
  },
  {
    "code": "707",
    "name": "Chamberlin field station",
    "latitude": 39.2773,
    "longitude": -105.44,
    "altitude_m": 0,
    "country": "USA",
    "telescope_type": "optical"
  },
  {
    "code": "708",
    "name": "0  Chamberlin Observatory, Denver",
    "latitude": 39.4868,
    "longitude": -104.9525,
    "altitude_m": 0,
    "country": "USA",
    "telescope_type": "optical"
  },
  {
    "code": "710",
    "name": "8  MPO Observatory, Florissant",
    "latitude": 38.6894,
    "longitude": -105.2664,
    "altitude_m": 0,
    "country": "USA",
    "telescope_type": "optical"
  },
  {
    "code": "711",
    "name": "1  McDonald Observatory, Fort Davis",
    "latitude": 30.5025,
    "longitude": -104.0215,
    "altitude_m": 0,
    "country": "USA",
    "telescope_type": "optical"
  },
  {
    "code": "713",
    "name": "3  Thornton",
    "latitude": 39.6892,
    "longitude": -105.0103,
    "altitude_m": 0,
    "country": "USA",
    "telescope_type": "optical"
  },
  {
    "code": "714",
    "name": "9  Bagdad",
    "latitude": 34.3903,
    "longitude": -113.1827,
    "altitude_m": 0,
    "country": "USA",
    "telescope_type": "optical"
  },
  {
    "code": "716",
    "name": "1  Palmer Divide Observatory, Colorado Springs",
    "latitude": 38.8961,
    "longitude": -104.7511,
    "altitude_m": 0,
    "country": "USA",
    "telescope_type": "optical"
  },
  {
    "code": "717",
    "name": "6  Prude Ranch",
    "latitude": 30.4397,
    "longitude": -103.9519,
    "altitude_m": 0,
    "country": "USA",
    "telescope_type": "optical"
  },
  {
    "code": "718",
    "name": "2  Tooele",
    "latitude": 40.4505,
    "longitude": -112.2958,
    "altitude_m": 0,
    "country": "USA",
    "telescope_type": "optical"
  },
  {
    "code": "720",
    "name": "8  Universidad de Monterrey",
    "latitude": 25.4892,
    "longitude": -100.3739,
    "altitude_m": 0,
    "country": "USA",
    "telescope_type": "optical"
  },
  {
    "code": "721",
    "name": "6  Lime Creek",
    "latitude": 40.207,
    "longitude": -100.2688,
    "altitude_m": 0,
    "country": "USA",
    "telescope_type": "optical"
  },
  {
    "code": "722",
    "name": "0  Missouri City",
    "latitude": 29.4392,
    "longitude": -95.5808,
    "altitude_m": 0,
    "country": "USA",
    "telescope_type": "optical"
  },
  {
    "code": "723",
    "name": "1  Cottonwood Observatory, Ada",
    "latitude": 34.6942,
    "longitude": -96.67,
    "altitude_m": 0,
    "country": "USA",
    "telescope_type": "optical"
  },
  {
    "code": "724",
    "name": "6  National Observatory, Tacubaya",
    "latitude": 19.2815,
    "longitude": -99.1947,
    "altitude_m": 0,
    "country": "Mexico",
    "telescope_type": "optical"
  },
  {
    "code": "725",
    "name": "8  Fair Oaks Ranch",
    "latitude": 29.5968,
    "longitude": -98.6547,
    "altitude_m": 0,
    "country": "USA",
    "telescope_type": "optical"
  },
  {
    "code": "726",
    "name": "0  Brainerd",
    "latitude": 46.2566,
    "longitude": -94.3067,
    "altitude_m": 0,
    "country": "USA",
    "telescope_type": "optical"
  },
  {
    "code": "728",
    "name": "4  Corpus Christi",
    "latitude": 27.5318,
    "longitude": -97.3916,
    "altitude_m": 0,
    "country": "USA",
    "telescope_type": "optical"
  },
  {
    "code": "731",
    "name": "4  Rose-Hulman Observatory, Terre Haute",
    "latitude": 39.2906,
    "longitude": -87.3289,
    "altitude_m": 0,
    "country": "USA",
    "telescope_type": "optical"
  },
  {
    "code": "732",
    "name": "9  Oaxaca",
    "latitude": 17.0684,
    "longitude": -96.77,
    "altitude_m": 0,
    "country": "Mexico",
    "telescope_type": "optical"
  },
  {
    "code": "733",
    "name": "7  Allen, Texas",
    "latitude": 32.98,
    "longitude": -96.6454,
    "altitude_m": 0,
    "country": "USA",
    "telescope_type": "optical"
  },
  {
    "code": "736",
    "name": "2  Houston",
    "latitude": 29.4523,
    "longitude": -96.6643,
    "altitude_m": 0,
    "country": "USA",
    "telescope_type": "optical"
  },
  {
    "code": "737",
    "name": "New Bullpen Observatory, Alpharetta",
    "latitude": 33.9987,
    "longitude": -84.3367,
    "altitude_m": 0,
    "country": "USA",
    "telescope_type": "optical"
  },
  {
    "code": "738",
    "name": "Observatory of the State University of Missouri",
    "latitude": 38.7566,
    "longitude": -92.3267,
    "altitude_m": 0,
    "country": "USA",
    "telescope_type": "optical"
  },
  {
    "code": "739",
    "name": "9  Sunflower Observatory, Olathe",
    "latitude": 38.6768,
    "longitude": -94.756,
    "altitude_m": 0,
    "country": "USA",
    "telescope_type": "solar"
  },
  {
    "code": "740",
    "name": "SFA Observatory, Nacogdoches",
    "latitude": 31.5853,
    "longitude": -94.6617,
    "altitude_m": 0,
    "country": "USA",
    "telescope_type": "optical"
  },
  {
    "code": "741",
    "name": "2  Goodsell Observatory, Northfield",
    "latitude": 44.2683,
    "longitude": -93.1497,
    "altitude_m": 0,
    "country": "USA",
    "telescope_type": "optical"
  },
  {
    "code": "744",
    "name": "5  Doyan Rose Observatory, Indianapolis",
    "latitude": 39.6557,
    "longitude": -86.1622,
    "altitude_m": 0,
    "country": "USA",
    "telescope_type": "optical"
  },
  {
    "code": "745",
    "name": "6  Morrison Obervatory, Glasgow",
    "latitude": 39.0383,
    "longitude": -92.8253,
    "altitude_m": 0,
    "country": "USA",
    "telescope_type": "optical"
  },
  {
    "code": "746",
    "name": "7  Brooks Observatory, Mt. Pleasant",
    "latitude": 43.3925,
    "longitude": -84.7746,
    "altitude_m": 0,
    "country": "USA",
    "telescope_type": "optical"
  },
  {
    "code": "747",
    "name": "7  Highland Road Park Observatory",
    "latitude": 30.1751,
    "longitude": -91.0708,
    "altitude_m": 0,
    "country": "USA",
    "telescope_type": "optical"
  },